[
    {
        "zip":"E1",
        "city_code":"LDN",
        "n_name":"Whitechapel, Stepney, Mile End",
        "n_lat":51.5180168152,
        "n_lng":-0.0572739989,
        "v_name":"Mouse Tail Coffee Stories",
        "v_lat":51.5194712277,
        "v_lng":-0.0585726686,
        "v_cat":"Coffee Shop"
    },
    {
        "zip":"E1",
        "city_code":"LDN",
        "n_name":"Whitechapel, Stepney, Mile End",
        "n_lat":51.5180168152,
        "n_lng":-0.0572739989,
        "v_name":"Rinkoff's Bakery",
        "v_lat":51.5199637048,
        "v_lng":-0.0532382975,
        "v_cat":"Bakery"
    },
    {
        "zip":"E1",
        "city_code":"LDN",
        "n_name":"Whitechapel, Stepney, Mile End",
        "n_lat":51.5180168152,
        "n_lng":-0.0572739989,
        "v_name":"One Mile End",
        "v_lat":51.5201508584,
        "v_lng":-0.0561359732,
        "v_cat":"Brewery"
    },
    {
        "zip":"E1",
        "city_code":"LDN",
        "n_name":"Whitechapel, Stepney, Mile End",
        "n_lat":51.5180168152,
        "n_lng":-0.0572739989,
        "v_name":"Cookies & Cream",
        "v_lat":51.520042045,
        "v_lng":-0.0554838481,
        "v_cat":"Ice Cream Shop"
    },
    {
        "zip":"E1",
        "city_code":"LDN",
        "n_name":"Whitechapel, Stepney, Mile End",
        "n_lat":51.5180168152,
        "n_lng":-0.0572739989,
        "v_name":"Tayyabs",
        "v_lat":51.5172403,
        "v_lng":-0.0634757,
        "v_cat":"North Indian Restaurant"
    },
    {
        "zip":"E1",
        "city_code":"LDN",
        "n_name":"Whitechapel, Stepney, Mile End",
        "n_lat":51.5180168152,
        "n_lng":-0.0572739989,
        "v_name":"Lahore One",
        "v_lat":51.5147252771,
        "v_lng":-0.0593986667,
        "v_cat":"Indian Restaurant"
    },
    {
        "zip":"E1",
        "city_code":"LDN",
        "n_name":"Whitechapel, Stepney, Mile End",
        "n_lat":51.5180168152,
        "n_lng":-0.0572739989,
        "v_name":"The White Hart",
        "v_lat":51.520244888,
        "v_lng":-0.0563849417,
        "v_cat":"Pub"
    },
    {
        "zip":"E1",
        "city_code":"LDN",
        "n_name":"Whitechapel, Stepney, Mile End",
        "n_lat":51.5180168152,
        "n_lng":-0.0572739989,
        "v_name":"Basicsalon",
        "v_lat":51.520668718,
        "v_lng":-0.0560930371,
        "v_cat":"Cosmetics Shop"
    },
    {
        "zip":"E1",
        "city_code":"LDN",
        "n_name":"Whitechapel, Stepney, Mile End",
        "n_lat":51.5180168152,
        "n_lng":-0.0572739989,
        "v_name":"Dirty Burger\/Chicken Shop",
        "v_lat":51.5202532058,
        "v_lng":-0.0551117785,
        "v_cat":"Burger Joint"
    },
    {
        "zip":"E1",
        "city_code":"LDN",
        "n_name":"Whitechapel, Stepney, Mile End",
        "n_lat":51.5180168152,
        "n_lng":-0.0572739989,
        "v_name":"New Road Hotel",
        "v_lat":51.5175747917,
        "v_lng":-0.0626579569,
        "v_cat":"Hotel"
    },
    {
        "zip":"E1",
        "city_code":"LDN",
        "n_name":"Whitechapel, Stepney, Mile End",
        "n_lat":51.5180168152,
        "n_lng":-0.0572739989,
        "v_name":"play on",
        "v_lat":51.5189020103,
        "v_lng":-0.0564588196,
        "v_cat":"Recreation Center"
    },
    {
        "zip":"E1",
        "city_code":"LDN",
        "n_name":"Whitechapel, Stepney, Mile End",
        "n_lat":51.5180168152,
        "n_lng":-0.0572739989,
        "v_name":"Needoo Grill",
        "v_lat":51.5170700412,
        "v_lng":-0.0623791168,
        "v_cat":"Indian Restaurant"
    },
    {
        "zip":"E1",
        "city_code":"LDN",
        "n_name":"Whitechapel, Stepney, Mile End",
        "n_lat":51.5180168152,
        "n_lng":-0.0572739989,
        "v_name":"The Cr\u00eape Shop",
        "v_lat":51.5172240312,
        "v_lng":-0.062888347,
        "v_cat":"Creperie"
    },
    {
        "zip":"E1",
        "city_code":"LDN",
        "n_name":"Whitechapel, Stepney, Mile End",
        "n_lat":51.5180168152,
        "n_lng":-0.0572739989,
        "v_name":"Fuga",
        "v_lat":51.5160668414,
        "v_lng":-0.0619998945,
        "v_cat":"Sandwich Place"
    },
    {
        "zip":"E1",
        "city_code":"LDN",
        "n_name":"Whitechapel, Stepney, Mile End",
        "n_lat":51.5180168152,
        "n_lng":-0.0572739989,
        "v_name":"Zaza's",
        "v_lat":51.5180662791,
        "v_lng":-0.06434022,
        "v_cat":"Indian Restaurant"
    },
    {
        "zip":"E1",
        "city_code":"LDN",
        "n_name":"Whitechapel, Stepney, Mile End",
        "n_lat":51.5180168152,
        "n_lng":-0.0572739989,
        "v_name":"East End Thrift Store",
        "v_lat":51.5198167826,
        "v_lng":-0.051234922,
        "v_cat":"Thrift \/ Vintage Store"
    },
    {
        "zip":"E1",
        "city_code":"LDN",
        "n_name":"Whitechapel, Stepney, Mile End",
        "n_lat":51.5180168152,
        "n_lng":-0.0572739989,
        "v_name":"Greggs",
        "v_lat":51.518936,
        "v_lng":-0.060952194,
        "v_cat":"Bakery"
    },
    {
        "zip":"E1",
        "city_code":"LDN",
        "n_name":"Whitechapel, Stepney, Mile End",
        "n_lat":51.5180168152,
        "n_lng":-0.0572739989,
        "v_name":"The Gym",
        "v_lat":51.520860249,
        "v_lng":-0.0518120357,
        "v_cat":"Gym \/ Fitness Center"
    },
    {
        "zip":"E1",
        "city_code":"LDN",
        "n_name":"Whitechapel, Stepney, Mile End",
        "n_lat":51.5180168152,
        "n_lng":-0.0572739989,
        "v_name":"Sainsbury's Local",
        "v_lat":51.5144897076,
        "v_lng":-0.0545150984,
        "v_cat":"Grocery Store"
    },
    {
        "zip":"E1",
        "city_code":"LDN",
        "n_name":"Whitechapel, Stepney, Mile End",
        "n_lat":51.5180168152,
        "n_lng":-0.0572739989,
        "v_name":"LHT Urban Bar",
        "v_lat":51.5192552001,
        "v_lng":-0.0589987201,
        "v_cat":"Pub"
    },
    {
        "zip":"E1",
        "city_code":"LDN",
        "n_name":"Whitechapel, Stepney, Mile End",
        "n_lat":51.5180168152,
        "n_lng":-0.0572739989,
        "v_name":"Nando's",
        "v_lat":51.5203784,
        "v_lng":-0.0553902,
        "v_cat":"Portuguese Restaurant"
    },
    {
        "zip":"E1",
        "city_code":"LDN",
        "n_name":"Whitechapel, Stepney, Mile End",
        "n_lat":51.5180168152,
        "n_lng":-0.0572739989,
        "v_name":"The Blind Beggar",
        "v_lat":51.5198888767,
        "v_lng":-0.0567472201,
        "v_cat":"Pub"
    },
    {
        "zip":"E1",
        "city_code":"LDN",
        "n_name":"Whitechapel, Stepney, Mile End",
        "n_lat":51.5180168152,
        "n_lng":-0.0572739989,
        "v_name":"Creams",
        "v_lat":51.517195,
        "v_lng":-0.062751,
        "v_cat":"Ice Cream Shop"
    },
    {
        "zip":"E1",
        "city_code":"LDN",
        "n_name":"Whitechapel, Stepney, Mile End",
        "n_lat":51.5180168152,
        "n_lng":-0.0572739989,
        "v_name":"Mulberry Sports & Leisure Centre",
        "v_lat":51.5141585736,
        "v_lng":-0.0591707248,
        "v_cat":"Gym \/ Fitness Center"
    },
    {
        "zip":"E1",
        "city_code":"LDN",
        "n_name":"Whitechapel, Stepney, Mile End",
        "n_lat":51.5180168152,
        "n_lng":-0.0572739989,
        "v_name":"Holiday Inn London - Whitechapel",
        "v_lat":51.515051,
        "v_lng":-0.0571481,
        "v_cat":"Hotel"
    },
    {
        "zip":"E1",
        "city_code":"LDN",
        "n_name":"Whitechapel, Stepney, Mile End",
        "n_lat":51.5180168152,
        "n_lng":-0.0572739989,
        "v_name":"Subway",
        "v_lat":51.5202838621,
        "v_lng":-0.0558763558,
        "v_cat":"Sandwich Place"
    },
    {
        "zip":"E1",
        "city_code":"LDN",
        "n_name":"Whitechapel, Stepney, Mile End",
        "n_lat":51.5180168152,
        "n_lng":-0.0572739989,
        "v_name":"Sainsbury's",
        "v_lat":51.5211536731,
        "v_lng":-0.0586367913,
        "v_cat":"Supermarket"
    },
    {
        "zip":"E1",
        "city_code":"LDN",
        "n_name":"Whitechapel, Stepney, Mile End",
        "n_lat":51.5180168152,
        "n_lng":-0.0572739989,
        "v_name":"Costa Coffee",
        "v_lat":51.5161904116,
        "v_lng":-0.0620462095,
        "v_cat":"Coffee Shop"
    },
    {
        "zip":"E1",
        "city_code":"LDN",
        "n_name":"Whitechapel, Stepney, Mile End",
        "n_lat":51.5180168152,
        "n_lng":-0.0572739989,
        "v_name":"Sinh Le",
        "v_lat":51.5204739751,
        "v_lng":-0.0533659237,
        "v_cat":"Chinese Restaurant"
    },
    {
        "zip":"E1",
        "city_code":"LDN",
        "n_name":"Whitechapel, Stepney, Mile End",
        "n_lat":51.5180168152,
        "n_lng":-0.0572739989,
        "v_name":"Subway",
        "v_lat":51.5144716503,
        "v_lng":-0.0582344217,
        "v_cat":"Sandwich Place"
    },
    {
        "zip":"E1",
        "city_code":"LDN",
        "n_name":"Whitechapel, Stepney, Mile End",
        "n_lat":51.5180168152,
        "n_lng":-0.0572739989,
        "v_name":"Kolapata",
        "v_lat":51.519742,
        "v_lng":-0.057233,
        "v_cat":"Asian Restaurant"
    },
    {
        "zip":"E1",
        "city_code":"LDN",
        "n_name":"Whitechapel, Stepney, Mile End",
        "n_lat":51.5180168152,
        "n_lng":-0.0572739989,
        "v_name":"Wok & Grill",
        "v_lat":51.519981555,
        "v_lng":-0.0559176722,
        "v_cat":"Fast Food Restaurant"
    },
    {
        "zip":"E1",
        "city_code":"LDN",
        "n_name":"Whitechapel, Stepney, Mile End",
        "n_lat":51.5180168152,
        "n_lng":-0.0572739989,
        "v_name":"Hungerford Arms",
        "v_lat":51.5145623396,
        "v_lng":-0.0577475286,
        "v_cat":"Dive Bar"
    },
    {
        "zip":"E1",
        "city_code":"LDN",
        "n_name":"Whitechapel, Stepney, Mile End",
        "n_lat":51.5180168152,
        "n_lng":-0.0572739989,
        "v_name":"Good Samaritan",
        "v_lat":51.5173932861,
        "v_lng":-0.0610269845,
        "v_cat":"Pub"
    },
    {
        "zip":"E1",
        "city_code":"LDN",
        "n_name":"Whitechapel, Stepney, Mile End",
        "n_lat":51.5180168152,
        "n_lng":-0.0572739989,
        "v_name":"Whitechapel Market",
        "v_lat":51.519324086,
        "v_lng":-0.0597873988,
        "v_cat":"Market"
    },
    {
        "zip":"E1",
        "city_code":"LDN",
        "n_name":"Whitechapel, Stepney, Mile End",
        "n_lat":51.5180168152,
        "n_lng":-0.0572739989,
        "v_name":"Whitechapel Sports Centre",
        "v_lat":51.5187078093,
        "v_lng":-0.0620325339,
        "v_cat":"Gym \/ Fitness Center"
    },
    {
        "zip":"E1",
        "city_code":"LDN",
        "n_name":"Whitechapel, Stepney, Mile End",
        "n_lat":51.5180168152,
        "n_lng":-0.0572739989,
        "v_name":"Whitechapel Station & Royal London Hospital Bus Stop A",
        "v_lat":51.5190346888,
        "v_lng":-0.0605269991,
        "v_cat":"Bus Stop"
    },
    {
        "zip":"E1",
        "city_code":"LDN",
        "n_name":"Whitechapel, Stepney, Mile End",
        "n_lat":51.5180168152,
        "n_lng":-0.0572739989,
        "v_name":"Iceland",
        "v_lat":51.5142463889,
        "v_lng":-0.0566808306,
        "v_cat":"Grocery Store"
    },
    {
        "zip":"E1",
        "city_code":"LDN",
        "n_name":"Whitechapel, Stepney, Mile End",
        "n_lat":51.5180168152,
        "n_lng":-0.0572739989,
        "v_name":"Motown Desserts",
        "v_lat":51.5171317469,
        "v_lng":-0.0641230231,
        "v_cat":"Dessert Shop"
    },
    {
        "zip":"E1",
        "city_code":"LDN",
        "n_name":"Whitechapel, Stepney, Mile End",
        "n_lat":51.5180168152,
        "n_lng":-0.0572739989,
        "v_name":"Whitechapel Fried Chicken",
        "v_lat":51.5189361532,
        "v_lng":-0.0612157772,
        "v_cat":"Fried Chicken Joint"
    },
    {
        "zip":"E1",
        "city_code":"LDN",
        "n_name":"Whitechapel, Stepney, Mile End",
        "n_lat":51.5180168152,
        "n_lng":-0.0572739989,
        "v_name":"Tesco Express",
        "v_lat":51.5144405791,
        "v_lng":-0.0589241087,
        "v_cat":"Grocery Store"
    },
    {
        "zip":"E1",
        "city_code":"LDN",
        "n_name":"Whitechapel, Stepney, Mile End",
        "n_lat":51.5180168152,
        "n_lng":-0.0572739989,
        "v_name":"Sahara Grill",
        "v_lat":51.516246217,
        "v_lng":-0.0622812147,
        "v_cat":"Steakhouse"
    },
    {
        "zip":"E1",
        "city_code":"LDN",
        "n_name":"Whitechapel, Stepney, Mile End",
        "n_lat":51.5180168152,
        "n_lng":-0.0572739989,
        "v_name":"TfL Santander Cycle Hire",
        "v_lat":51.5180171661,
        "v_lng":-0.0626010496,
        "v_cat":"Bike Rental \/ Bike Share"
    },
    {
        "zip":"E1",
        "city_code":"LDN",
        "n_name":"Whitechapel, Stepney, Mile End",
        "n_lat":51.5180168152,
        "n_lng":-0.0572739989,
        "v_name":"Kellys Florist.",
        "v_lat":51.5146171549,
        "v_lng":-0.0553076319,
        "v_cat":"Flower Shop"
    },
    {
        "zip":"E1",
        "city_code":"LDN",
        "n_name":"Whitechapel, Stepney, Mile End",
        "n_lat":51.5180168152,
        "n_lng":-0.0572739989,
        "v_name":"Watney Market Bus Stop F",
        "v_lat":51.514396698,
        "v_lng":-0.0557688448,
        "v_cat":"Bus Stop"
    },
    {
        "zip":"E1",
        "city_code":"LDN",
        "n_name":"Whitechapel, Stepney, Mile End",
        "n_lat":51.5180168152,
        "n_lng":-0.0572739989,
        "v_name":"176 Commercial Road",
        "v_lat":51.5147455575,
        "v_lng":-0.0610363526,
        "v_cat":"Hotel"
    },
    {
        "zip":"E1",
        "city_code":"LDN",
        "n_name":"Whitechapel, Stepney, Mile End",
        "n_lat":51.5180168152,
        "n_lng":-0.0572739989,
        "v_name":"Trafalgar Gardens",
        "v_lat":51.5146658964,
        "v_lng":-0.0610623254,
        "v_cat":"Park"
    },
    {
        "zip":"E1",
        "city_code":"LDN",
        "n_name":"Whitechapel, Stepney, Mile End",
        "n_lat":51.5180168152,
        "n_lng":-0.0572739989,
        "v_name":"Lahore Two",
        "v_lat":51.5142996796,
        "v_lng":-0.0535782714,
        "v_cat":"Indian Restaurant"
    },
    {
        "zip":"E1",
        "city_code":"LDN",
        "n_name":"Whitechapel, Stepney, Mile End",
        "n_lat":51.5180168152,
        "n_lng":-0.0572739989,
        "v_name":"Chicken Cottage",
        "v_lat":51.5149421818,
        "v_lng":-0.0623182663,
        "v_cat":"Fast Food Restaurant"
    },
    {
        "zip":"E1W",
        "city_code":"LDN",
        "n_name":"Wapping",
        "n_lat":51.506816864,
        "n_lng":-0.0594360009,
        "v_name":"Tobacco Dock",
        "v_lat":51.50864187,
        "v_lng":-0.0595422744,
        "v_cat":"Event Space"
    },
    {
        "zip":"E1W",
        "city_code":"LDN",
        "n_name":"Wapping",
        "n_lat":51.506816864,
        "n_lng":-0.0594360009,
        "v_name":"Cinnamon Coffee Shop",
        "v_lat":51.5047262824,
        "v_lng":-0.0572162972,
        "v_cat":"Coffee Shop"
    },
    {
        "zip":"E1W",
        "city_code":"LDN",
        "n_name":"Wapping",
        "n_lat":51.506816864,
        "n_lng":-0.0594360009,
        "v_name":"Skylight Rooftop Bar",
        "v_lat":51.5082879026,
        "v_lng":-0.0605199809,
        "v_cat":"Bar"
    },
    {
        "zip":"E1W",
        "city_code":"LDN",
        "n_name":"Wapping",
        "n_lat":51.506816864,
        "n_lng":-0.0594360009,
        "v_name":"Ornamental Canal",
        "v_lat":51.5061080787,
        "v_lng":-0.0624643134,
        "v_cat":"Canal"
    },
    {
        "zip":"E1W",
        "city_code":"LDN",
        "n_name":"Wapping",
        "n_lat":51.506816864,
        "n_lng":-0.0594360009,
        "v_name":"Turk's Head Cafe",
        "v_lat":51.504232,
        "v_lng":-0.061209,
        "v_cat":"Breakfast Spot"
    },
    {
        "zip":"E1W",
        "city_code":"LDN",
        "n_name":"Wapping",
        "n_lat":51.506816864,
        "n_lng":-0.0594360009,
        "v_name":"Town of Ramsgate",
        "v_lat":51.503344,
        "v_lng":-0.061923,
        "v_cat":"Pub"
    },
    {
        "zip":"E1W",
        "city_code":"LDN",
        "n_name":"Wapping",
        "n_lat":51.506816864,
        "n_lng":-0.0594360009,
        "v_name":"Captain Kidd",
        "v_lat":51.5033837098,
        "v_lng":-0.0579403766,
        "v_cat":"Pub"
    },
    {
        "zip":"E1W",
        "city_code":"LDN",
        "n_name":"Wapping",
        "n_lat":51.506816864,
        "n_lng":-0.0594360009,
        "v_name":"Laksha Bay",
        "v_lat":51.5055643649,
        "v_lng":-0.0581215224,
        "v_cat":"Indian Restaurant"
    },
    {
        "zip":"E1W",
        "city_code":"LDN",
        "n_name":"Wapping",
        "n_lat":51.506816864,
        "n_lng":-0.0594360009,
        "v_name":"Husseys Fruit and Veg",
        "v_lat":51.5052080029,
        "v_lng":-0.0579041654,
        "v_cat":"Convenience Store"
    },
    {
        "zip":"E1W",
        "city_code":"LDN",
        "n_name":"Wapping",
        "n_lat":51.506816864,
        "n_lng":-0.0594360009,
        "v_name":"Urban Baristas",
        "v_lat":51.5046105769,
        "v_lng":-0.0558902466,
        "v_cat":"Coffee Shop"
    },
    {
        "zip":"E1W",
        "city_code":"LDN",
        "n_name":"Wapping",
        "n_lat":51.506816864,
        "n_lng":-0.0594360009,
        "v_name":"River View Restaurant",
        "v_lat":51.5055632192,
        "v_lng":-0.0540229915,
        "v_cat":"Chinese Restaurant"
    },
    {
        "zip":"E1W",
        "city_code":"LDN",
        "n_name":"Wapping",
        "n_lat":51.506816864,
        "n_lng":-0.0594360009,
        "v_name":"St George's Leisure Centre",
        "v_lat":51.5099298185,
        "v_lng":-0.0579046712,
        "v_cat":"Pool"
    },
    {
        "zip":"E1W",
        "city_code":"LDN",
        "n_name":"Wapping",
        "n_lat":51.506816864,
        "n_lng":-0.0594360009,
        "v_name":"Wapping Woods",
        "v_lat":51.5082731362,
        "v_lng":-0.0559804175,
        "v_cat":"Park"
    },
    {
        "zip":"E1W",
        "city_code":"LDN",
        "n_name":"Wapping",
        "n_lat":51.506816864,
        "n_lng":-0.0594360009,
        "v_name":"Il Bacino",
        "v_lat":51.507514,
        "v_lng":-0.058365,
        "v_cat":"Italian Restaurant"
    },
    {
        "zip":"E1W",
        "city_code":"LDN",
        "n_name":"Wapping",
        "n_lat":51.506816864,
        "n_lng":-0.0594360009,
        "v_name":"Il Bordello",
        "v_lat":51.506598,
        "v_lng":-0.052521,
        "v_cat":"Italian Restaurant"
    },
    {
        "zip":"E1W",
        "city_code":"LDN",
        "n_name":"Wapping",
        "n_lat":51.506816864,
        "n_lng":-0.0594360009,
        "v_name":"Co-op Food",
        "v_lat":51.5091818592,
        "v_lng":-0.0642497495,
        "v_cat":"Grocery Store"
    },
    {
        "zip":"E1W",
        "city_code":"LDN",
        "n_name":"Wapping",
        "n_lat":51.506816864,
        "n_lng":-0.0594360009,
        "v_name":"Domino's Pizza",
        "v_lat":51.5091689821,
        "v_lng":-0.0632201451,
        "v_cat":"Pizza Place"
    },
    {
        "zip":"E1W",
        "city_code":"LDN",
        "n_name":"Wapping",
        "n_lat":51.506816864,
        "n_lng":-0.0594360009,
        "v_name":"P J Bakers",
        "v_lat":51.5051560048,
        "v_lng":-0.0578769918,
        "v_cat":"Bakery"
    },
    {
        "zip":"E1W",
        "city_code":"LDN",
        "n_name":"Wapping",
        "n_lat":51.506816864,
        "n_lng":-0.0594360009,
        "v_name":"John Orwell Sports Centre",
        "v_lat":51.5045429641,
        "v_lng":-0.0616768929,
        "v_cat":"Gym \/ Fitness Center"
    },
    {
        "zip":"E1W",
        "city_code":"LDN",
        "n_name":"Wapping",
        "n_lat":51.506816864,
        "n_lng":-0.0594360009,
        "v_name":"Turners Old Star",
        "v_lat":51.5053438195,
        "v_lng":-0.0592906706,
        "v_cat":"Pub"
    },
    {
        "zip":"E1W",
        "city_code":"LDN",
        "n_name":"Wapping",
        "n_lat":51.506816864,
        "n_lng":-0.0594360009,
        "v_name":"Wapping Supermarket",
        "v_lat":51.5093835016,
        "v_lng":-0.0585365295,
        "v_cat":"Grocery Store"
    },
    {
        "zip":"E1W",
        "city_code":"LDN",
        "n_name":"Wapping",
        "n_lat":51.506816864,
        "n_lng":-0.0594360009,
        "v_name":"Wapping Mini Store",
        "v_lat":51.50758,
        "v_lng":-0.05468,
        "v_cat":"Convenience Store"
    },
    {
        "zip":"E1W",
        "city_code":"LDN",
        "n_name":"Wapping",
        "n_lat":51.506816864,
        "n_lng":-0.0594360009,
        "v_name":"Thames River Police Museum",
        "v_lat":51.5032417797,
        "v_lng":-0.0586594384,
        "v_cat":"History Museum"
    },
    {
        "zip":"E1W",
        "city_code":"LDN",
        "n_name":"Wapping",
        "n_lat":51.506816864,
        "n_lng":-0.0594360009,
        "v_name":"Waterside Gardens",
        "v_lat":51.5031035333,
        "v_lng":-0.0595298807,
        "v_cat":"Park"
    },
    {
        "zip":"E1W",
        "city_code":"LDN",
        "n_name":"Wapping",
        "n_lat":51.506816864,
        "n_lng":-0.0594360009,
        "v_name":"Mighty Fine Wines",
        "v_lat":51.5032505367,
        "v_lng":-0.0614385717,
        "v_cat":"Food & Drink Shop"
    },
    {
        "zip":"E1W",
        "city_code":"LDN",
        "n_name":"Wapping",
        "n_lat":51.506816864,
        "n_lng":-0.0594360009,
        "v_name":"Wapping Old Stairs",
        "v_lat":51.503331,
        "v_lng":-0.062123,
        "v_cat":"Waterfront"
    },
    {
        "zip":"E1W",
        "city_code":"LDN",
        "n_name":"Wapping",
        "n_lat":51.506816864,
        "n_lng":-0.0594360009,
        "v_name":"Fitness Space - Wapping",
        "v_lat":51.5065258572,
        "v_lng":-0.0529051597,
        "v_cat":"Gym \/ Fitness Center"
    },
    {
        "zip":"E2",
        "city_code":"LDN",
        "n_name":"Bethnal Green, Shoreditch",
        "n_lat":51.529712677,
        "n_lng":-0.0613659993,
        "v_name":"The Common",
        "v_lat":51.5293703887,
        "v_lng":-0.0610006276,
        "v_cat":"Coffee Shop"
    },
    {
        "zip":"E2",
        "city_code":"LDN",
        "n_name":"Bethnal Green, Shoreditch",
        "n_lat":51.529712677,
        "n_lng":-0.0613659993,
        "v_name":"Sebright Arms",
        "v_lat":51.5320581964,
        "v_lng":-0.0631520692,
        "v_cat":"Pub"
    },
    {
        "zip":"E2",
        "city_code":"LDN",
        "n_name":"Bethnal Green, Shoreditch",
        "n_lat":51.529712677,
        "n_lng":-0.0613659993,
        "v_name":"Mama Shelter London",
        "v_lat":51.5320301167,
        "v_lng":-0.0615978783,
        "v_cat":"Hotel"
    },
    {
        "zip":"E2",
        "city_code":"LDN",
        "n_name":"Bethnal Green, Shoreditch",
        "n_lat":51.529712677,
        "n_lng":-0.0613659993,
        "v_name":"Fight Zone",
        "v_lat":51.5327415383,
        "v_lng":-0.061471546,
        "v_cat":"Martial Arts School"
    },
    {
        "zip":"E2",
        "city_code":"LDN",
        "n_name":"Bethnal Green, Shoreditch",
        "n_lat":51.529712677,
        "n_lng":-0.0613659993,
        "v_name":"Sodo Pizza - Bethnal Green",
        "v_lat":51.5297312475,
        "v_lng":-0.0566926604,
        "v_cat":"Pizza Place"
    },
    {
        "zip":"E2",
        "city_code":"LDN",
        "n_name":"Bethnal Green, Shoreditch",
        "n_lat":51.529712677,
        "n_lng":-0.0613659993,
        "v_name":"Satan's Whiskers",
        "v_lat":51.5295883962,
        "v_lng":-0.055997326,
        "v_cat":"Cocktail Bar"
    },
    {
        "zip":"E2",
        "city_code":"LDN",
        "n_name":"Bethnal Green, Shoreditch",
        "n_lat":51.529712677,
        "n_lng":-0.0613659993,
        "v_name":"Yoga Place E2",
        "v_lat":51.5273645218,
        "v_lng":-0.0576966955,
        "v_cat":"Yoga Studio"
    },
    {
        "zip":"E2",
        "city_code":"LDN",
        "n_name":"Bethnal Green, Shoreditch",
        "n_lat":51.529712677,
        "n_lng":-0.0613659993,
        "v_name":"Hackney Coffee Company",
        "v_lat":51.5324015518,
        "v_lng":-0.0583539045,
        "v_cat":"Coffee Shop"
    },
    {
        "zip":"E2",
        "city_code":"LDN",
        "n_name":"Bethnal Green, Shoreditch",
        "n_lat":51.529712677,
        "n_lng":-0.0613659993,
        "v_name":"Italina",
        "v_lat":51.5302984832,
        "v_lng":-0.0562278788,
        "v_cat":"Italian Restaurant"
    },
    {
        "zip":"E2",
        "city_code":"LDN",
        "n_name":"Bethnal Green, Shoreditch",
        "n_lat":51.529712677,
        "n_lng":-0.0613659993,
        "v_name":"Ozone Coffee Roasters",
        "v_lat":51.53251,
        "v_lng":-0.061191,
        "v_cat":"Coffee Shop"
    },
    {
        "zip":"E2",
        "city_code":"LDN",
        "n_name":"Bethnal Green, Shoreditch",
        "n_lat":51.529712677,
        "n_lng":-0.0613659993,
        "v_name":"Mother Kelly's Bottle Shop and Tap Room",
        "v_lat":51.5284134078,
        "v_lng":-0.0558427016,
        "v_cat":"Beer Bar"
    },
    {
        "zip":"E2",
        "city_code":"LDN",
        "n_name":"Bethnal Green, Shoreditch",
        "n_lat":51.529712677,
        "n_lng":-0.0613659993,
        "v_name":"The Natural Philosopher",
        "v_lat":51.5323566421,
        "v_lng":-0.0587422981,
        "v_cat":"Cocktail Bar"
    },
    {
        "zip":"E2",
        "city_code":"LDN",
        "n_name":"Bethnal Green, Shoreditch",
        "n_lat":51.529712677,
        "n_lng":-0.0613659993,
        "v_name":"Second Shot",
        "v_lat":51.5274115702,
        "v_lng":-0.05662538,
        "v_cat":"Coffee Shop"
    },
    {
        "zip":"E2",
        "city_code":"LDN",
        "n_name":"Bethnal Green, Shoreditch",
        "n_lat":51.529712677,
        "n_lng":-0.0613659993,
        "v_name":"The Canary",
        "v_lat":51.5296262696,
        "v_lng":-0.0601425938,
        "v_cat":"Coffee Shop"
    },
    {
        "zip":"E2",
        "city_code":"LDN",
        "n_name":"Bethnal Green, Shoreditch",
        "n_lat":51.529712677,
        "n_lng":-0.0613659993,
        "v_name":"Conservatory Archives",
        "v_lat":51.532399794,
        "v_lng":-0.0586021241,
        "v_cat":"Flower Shop"
    },
    {
        "zip":"E2",
        "city_code":"LDN",
        "n_name":"Bethnal Green, Shoreditch",
        "n_lat":51.529712677,
        "n_lng":-0.0613659993,
        "v_name":"Bethnal Green Working Mens Club",
        "v_lat":51.5280572318,
        "v_lng":-0.0638631954,
        "v_cat":"Social Club"
    },
    {
        "zip":"E2",
        "city_code":"LDN",
        "n_name":"Bethnal Green, Shoreditch",
        "n_lat":51.529712677,
        "n_lng":-0.0613659993,
        "v_name":"The Sun Tavern",
        "v_lat":51.5272518668,
        "v_lng":-0.05831422,
        "v_cat":"Bar"
    },
    {
        "zip":"E2",
        "city_code":"LDN",
        "n_name":"Bethnal Green, Shoreditch",
        "n_lat":51.529712677,
        "n_lng":-0.0613659993,
        "v_name":"E Pellicci",
        "v_lat":51.526516,
        "v_lng":-0.063426,
        "v_cat":"Caf\u00e9"
    },
    {
        "zip":"E2",
        "city_code":"LDN",
        "n_name":"Bethnal Green, Shoreditch",
        "n_lat":51.529712677,
        "n_lng":-0.0613659993,
        "v_name":"The Queen Adelaide",
        "v_lat":51.5323441046,
        "v_lng":-0.0589543561,
        "v_cat":"Gay Bar"
    },
    {
        "zip":"E2",
        "city_code":"LDN",
        "n_name":"Bethnal Green, Shoreditch",
        "n_lat":51.529712677,
        "n_lng":-0.0613659993,
        "v_name":"Hackney City Farm",
        "v_lat":51.5317676433,
        "v_lng":-0.066420977,
        "v_cat":"Farm"
    },
    {
        "zip":"E2",
        "city_code":"LDN",
        "n_name":"Bethnal Green, Shoreditch",
        "n_lat":51.529712677,
        "n_lng":-0.0613659993,
        "v_name":"Double Impresso Coffee",
        "v_lat":51.526647,
        "v_lng":-0.064002,
        "v_cat":"Coffee Shop"
    },
    {
        "zip":"E2",
        "city_code":"LDN",
        "n_name":"Bethnal Green, Shoreditch",
        "n_lat":51.529712677,
        "n_lng":-0.0613659993,
        "v_name":"Cafe 338",
        "v_lat":51.5265823609,
        "v_lng":-0.0632576189,
        "v_cat":"Caf\u00e9"
    },
    {
        "zip":"E2",
        "city_code":"LDN",
        "n_name":"Bethnal Green, Shoreditch",
        "n_lat":51.529712677,
        "n_lng":-0.0613659993,
        "v_name":"Zamoo",
        "v_lat":51.5269519269,
        "v_lng":-0.0600992428,
        "v_cat":"Falafel Restaurant"
    },
    {
        "zip":"E2",
        "city_code":"LDN",
        "n_name":"Bethnal Green, Shoreditch",
        "n_lat":51.529712677,
        "n_lng":-0.0613659993,
        "v_name":"Coupette",
        "v_lat":51.5271329569,
        "v_lng":-0.0590603971,
        "v_cat":"Cocktail Bar"
    },
    {
        "zip":"E2",
        "city_code":"LDN",
        "n_name":"Bethnal Green, Shoreditch",
        "n_lat":51.529712677,
        "n_lng":-0.0613659993,
        "v_name":"Sam's Cafe",
        "v_lat":51.5264242862,
        "v_lng":-0.06505559,
        "v_cat":"Caf\u00e9"
    },
    {
        "zip":"E2",
        "city_code":"LDN",
        "n_name":"Bethnal Green, Shoreditch",
        "n_lat":51.529712677,
        "n_lng":-0.0613659993,
        "v_name":"Town Hall Hotel & Apartments",
        "v_lat":51.5306652805,
        "v_lng":-0.0552136915,
        "v_cat":"Hotel"
    },
    {
        "zip":"E2",
        "city_code":"LDN",
        "n_name":"Bethnal Green, Shoreditch",
        "n_lat":51.529712677,
        "n_lng":-0.0613659993,
        "v_name":"A Portuguese Love Affair",
        "v_lat":51.531189421,
        "v_lng":-0.0665547915,
        "v_cat":"Coffee Shop"
    },
    {
        "zip":"E2",
        "city_code":"LDN",
        "n_name":"Bethnal Green, Shoreditch",
        "n_lat":51.529712677,
        "n_lng":-0.0613659993,
        "v_name":"The Old George",
        "v_lat":51.52701,
        "v_lng":-0.06083,
        "v_cat":"Pub"
    },
    {
        "zip":"E2",
        "city_code":"LDN",
        "n_name":"Bethnal Green, Shoreditch",
        "n_lat":51.529712677,
        "n_lng":-0.0613659993,
        "v_name":"Old Street Brewery & Taproom",
        "v_lat":51.5269497979,
        "v_lng":-0.0564258179,
        "v_cat":"Brewery"
    },
    {
        "zip":"E2",
        "city_code":"LDN",
        "n_name":"Bethnal Green, Shoreditch",
        "n_lat":51.529712677,
        "n_lng":-0.0613659993,
        "v_name":"Arepa & Co",
        "v_lat":51.528670141,
        "v_lng":-0.0561372693,
        "v_cat":"Arepa Restaurant"
    },
    {
        "zip":"E2",
        "city_code":"LDN",
        "n_name":"Bethnal Green, Shoreditch",
        "n_lat":51.529712677,
        "n_lng":-0.0613659993,
        "v_name":"Little Georgia",
        "v_lat":51.5332075453,
        "v_lng":-0.065089002,
        "v_cat":"Caucasian Restaurant"
    },
    {
        "zip":"E2",
        "city_code":"LDN",
        "n_name":"Bethnal Green, Shoreditch",
        "n_lat":51.529712677,
        "n_lng":-0.0613659993,
        "v_name":"Sager + Wilde",
        "v_lat":51.5284427087,
        "v_lng":-0.0557714759,
        "v_cat":"Restaurant"
    },
    {
        "zip":"E2",
        "city_code":"LDN",
        "n_name":"Bethnal Green, Shoreditch",
        "n_lat":51.529712677,
        "n_lng":-0.0613659993,
        "v_name":"The Virgin Queen",
        "v_lat":51.5336803338,
        "v_lng":-0.0644346098,
        "v_cat":"Pub"
    },
    {
        "zip":"E2",
        "city_code":"LDN",
        "n_name":"Bethnal Green, Shoreditch",
        "n_lat":51.529712677,
        "n_lng":-0.0613659993,
        "v_name":"Frizzante",
        "v_lat":51.5316948796,
        "v_lng":-0.0663951378,
        "v_cat":"Italian Restaurant"
    },
    {
        "zip":"E2",
        "city_code":"LDN",
        "n_name":"Bethnal Green, Shoreditch",
        "n_lat":51.529712677,
        "n_lng":-0.0613659993,
        "v_name":"Nkora",
        "v_lat":51.5325958709,
        "v_lng":-0.0571483458,
        "v_cat":"Coffee Shop"
    },
    {
        "zip":"E2",
        "city_code":"LDN",
        "n_name":"Bethnal Green, Shoreditch",
        "n_lat":51.529712677,
        "n_lng":-0.0613659993,
        "v_name":"Resistance Gallery",
        "v_lat":51.5295996104,
        "v_lng":-0.0566619592,
        "v_cat":"Art Gallery"
    },
    {
        "zip":"E2",
        "city_code":"LDN",
        "n_name":"Bethnal Green, Shoreditch",
        "n_lat":51.529712677,
        "n_lng":-0.0613659993,
        "v_name":"Grace & Thorn Flowers",
        "v_lat":51.5312555664,
        "v_lng":-0.0661599987,
        "v_cat":"Flower Shop"
    },
    {
        "zip":"E2",
        "city_code":"LDN",
        "n_name":"Bethnal Green, Shoreditch",
        "n_lat":51.529712677,
        "n_lng":-0.0613659993,
        "v_name":"The Beehive",
        "v_lat":51.528416,
        "v_lng":-0.055739656,
        "v_cat":"Coffee Shop"
    },
    {
        "zip":"E2",
        "city_code":"LDN",
        "n_name":"Bethnal Green, Shoreditch",
        "n_lat":51.529712677,
        "n_lng":-0.0613659993,
        "v_name":"Renegade London Wine",
        "v_lat":51.5270047201,
        "v_lng":-0.056381271,
        "v_cat":"Wine Bar"
    },
    {
        "zip":"E2",
        "city_code":"LDN",
        "n_name":"Bethnal Green, Shoreditch",
        "n_lat":51.529712677,
        "n_lng":-0.0613659993,
        "v_name":"The East London Hotel",
        "v_lat":51.5287088427,
        "v_lng":-0.0557712882,
        "v_cat":"Hotel"
    },
    {
        "zip":"E2",
        "city_code":"LDN",
        "n_name":"Bethnal Green, Shoreditch",
        "n_lat":51.529712677,
        "n_lng":-0.0613659993,
        "v_name":"The Dundee Arms",
        "v_lat":51.529281,
        "v_lng":-0.056005,
        "v_cat":"Pub"
    },
    {
        "zip":"E2",
        "city_code":"LDN",
        "n_name":"Bethnal Green, Shoreditch",
        "n_lat":51.529712677,
        "n_lng":-0.0613659993,
        "v_name":"Love Shack",
        "v_lat":51.532207,
        "v_lng":-0.057091,
        "v_cat":"Vegetarian \/ Vegan Restaurant"
    },
    {
        "zip":"E2",
        "city_code":"LDN",
        "n_name":"Bethnal Green, Shoreditch",
        "n_lat":51.529712677,
        "n_lng":-0.0613659993,
        "v_name":"CRAFTNDRAFT",
        "v_lat":51.5311302079,
        "v_lng":-0.0675782561,
        "v_cat":"Beer Store"
    },
    {
        "zip":"E2",
        "city_code":"LDN",
        "n_name":"Bethnal Green, Shoreditch",
        "n_lat":51.529712677,
        "n_lng":-0.0613659993,
        "v_name":"Oval Space",
        "v_lat":51.5332376661,
        "v_lng":-0.059398467,
        "v_cat":"Music Venue"
    },
    {
        "zip":"E2",
        "city_code":"LDN",
        "n_name":"Bethnal Green, Shoreditch",
        "n_lat":51.529712677,
        "n_lng":-0.0613659993,
        "v_name":"V&A Museum of Childhood",
        "v_lat":51.529038,
        "v_lng":-0.054832,
        "v_cat":"Museum"
    },
    {
        "zip":"E2",
        "city_code":"LDN",
        "n_name":"Bethnal Green, Shoreditch",
        "n_lat":51.529712677,
        "n_lng":-0.0613659993,
        "v_name":"The Gallery Cafe",
        "v_lat":51.5297411325,
        "v_lng":-0.0544727197,
        "v_cat":"Caf\u00e9"
    },
    {
        "zip":"E2",
        "city_code":"LDN",
        "n_name":"Bethnal Green, Shoreditch",
        "n_lat":51.529712677,
        "n_lng":-0.0613659993,
        "v_name":"The Laughing Heart",
        "v_lat":51.5311733777,
        "v_lng":-0.0680018795,
        "v_cat":"Wine Bar"
    },
    {
        "zip":"E2",
        "city_code":"LDN",
        "n_name":"Bethnal Green, Shoreditch",
        "n_lat":51.529712677,
        "n_lng":-0.0613659993,
        "v_name":"Bethnal Green Tavern",
        "v_lat":51.526996,
        "v_lng":-0.05848,
        "v_cat":"Pub"
    },
    {
        "zip":"E2",
        "city_code":"LDN",
        "n_name":"Bethnal Green, Shoreditch",
        "n_lat":51.529712677,
        "n_lng":-0.0613659993,
        "v_name":"Offie & Toffie",
        "v_lat":51.5270496471,
        "v_lng":-0.0556401482,
        "v_cat":"Convenience Store"
    },
    {
        "zip":"E2",
        "city_code":"LDN",
        "n_name":"Bethnal Green, Shoreditch",
        "n_lat":51.529712677,
        "n_lng":-0.0613659993,
        "v_name":"La Forchetta",
        "v_lat":51.527175918,
        "v_lng":-0.0578288896,
        "v_cat":"Pizza Place"
    },
    {
        "zip":"E2",
        "city_code":"LDN",
        "n_name":"Bethnal Green, Shoreditch",
        "n_lat":51.529712677,
        "n_lng":-0.0613659993,
        "v_name":"Al Amin",
        "v_lat":51.532946921,
        "v_lng":-0.0572652231,
        "v_cat":"Indian Restaurant"
    },
    {
        "zip":"E2",
        "city_code":"LDN",
        "n_name":"Bethnal Green, Shoreditch",
        "n_lat":51.529712677,
        "n_lng":-0.0613659993,
        "v_name":"London Cocktail Club",
        "v_lat":51.5286017812,
        "v_lng":-0.0559389761,
        "v_cat":"Cocktail Bar"
    },
    {
        "zip":"E2",
        "city_code":"LDN",
        "n_name":"Bethnal Green, Shoreditch",
        "n_lat":51.529712677,
        "n_lng":-0.0613659993,
        "v_name":"Spa London",
        "v_lat":51.5295618988,
        "v_lng":-0.0554489347,
        "v_cat":"Spa"
    },
    {
        "zip":"E2",
        "city_code":"LDN",
        "n_name":"Bethnal Green, Shoreditch",
        "n_lat":51.529712677,
        "n_lng":-0.0613659993,
        "v_name":"Weaver's Fields",
        "v_lat":51.525333214,
        "v_lng":-0.0619053841,
        "v_cat":"Park"
    },
    {
        "zip":"E2",
        "city_code":"LDN",
        "n_name":"Bethnal Green, Shoreditch",
        "n_lat":51.529712677,
        "n_lng":-0.0613659993,
        "v_name":"Hurwundeki Cafe",
        "v_lat":51.5322551789,
        "v_lng":-0.0570513029,
        "v_cat":"Korean Restaurant"
    },
    {
        "zip":"E2",
        "city_code":"LDN",
        "n_name":"Bethnal Green, Shoreditch",
        "n_lat":51.529712677,
        "n_lng":-0.0613659993,
        "v_name":"Museum Gardens",
        "v_lat":51.5278209351,
        "v_lng":-0.0555249396,
        "v_cat":"Park"
    },
    {
        "zip":"E2",
        "city_code":"LDN",
        "n_name":"Bethnal Green, Shoreditch",
        "n_lat":51.529712677,
        "n_lng":-0.0613659993,
        "v_name":"Japanese Canteen",
        "v_lat":51.5288774528,
        "v_lng":-0.0557132244,
        "v_cat":"Japanese Restaurant"
    },
    {
        "zip":"E2",
        "city_code":"LDN",
        "n_name":"Bethnal Green, Shoreditch",
        "n_lat":51.529712677,
        "n_lng":-0.0613659993,
        "v_name":"Paradise Cottage",
        "v_lat":51.5274845776,
        "v_lng":-0.0564685472,
        "v_cat":"Fast Food Restaurant"
    },
    {
        "zip":"E2",
        "city_code":"LDN",
        "n_name":"Bethnal Green, Shoreditch",
        "n_lat":51.529712677,
        "n_lng":-0.0613659993,
        "v_name":"York Hall",
        "v_lat":51.529956314,
        "v_lng":-0.0554890748,
        "v_cat":"Concert Hall"
    },
    {
        "zip":"E2",
        "city_code":"LDN",
        "n_name":"Bethnal Green, Shoreditch",
        "n_lat":51.529712677,
        "n_lng":-0.0613659993,
        "v_name":"Starbucks",
        "v_lat":51.5272495234,
        "v_lng":-0.0556083192,
        "v_cat":"Coffee Shop"
    },
    {
        "zip":"E2",
        "city_code":"LDN",
        "n_name":"Bethnal Green, Shoreditch",
        "n_lat":51.529712677,
        "n_lng":-0.0613659993,
        "v_name":"Craft Cocktail Company",
        "v_lat":51.5288613936,
        "v_lng":-0.0557844391,
        "v_cat":"Cocktail Bar"
    },
    {
        "zip":"E2",
        "city_code":"LDN",
        "n_name":"Bethnal Green, Shoreditch",
        "n_lat":51.529712677,
        "n_lng":-0.0613659993,
        "v_name":"Metropolis",
        "v_lat":51.5324531674,
        "v_lng":-0.0571148545,
        "v_cat":"Strip Club"
    },
    {
        "zip":"E2",
        "city_code":"LDN",
        "n_name":"Bethnal Green, Shoreditch",
        "n_lat":51.529712677,
        "n_lng":-0.0613659993,
        "v_name":"Co-Op",
        "v_lat":51.532287,
        "v_lng":-0.057036,
        "v_cat":"Grocery Store"
    },
    {
        "zip":"E2",
        "city_code":"LDN",
        "n_name":"Bethnal Green, Shoreditch",
        "n_lat":51.529712677,
        "n_lng":-0.0613659993,
        "v_name":"The Hare",
        "v_lat":51.5333832465,
        "v_lng":-0.0572445712,
        "v_cat":"Pub"
    },
    {
        "zip":"E2",
        "city_code":"LDN",
        "n_name":"Bethnal Green, Shoreditch",
        "n_lat":51.529712677,
        "n_lng":-0.0613659993,
        "v_name":"Fitness4Less",
        "v_lat":51.5326878663,
        "v_lng":-0.0574391891,
        "v_cat":"Gym \/ Fitness Center"
    },
    {
        "zip":"E2",
        "city_code":"LDN",
        "n_name":"Bethnal Green, Shoreditch",
        "n_lat":51.529712677,
        "n_lng":-0.0613659993,
        "v_name":"Sainsbury's Local",
        "v_lat":51.5270462029,
        "v_lng":-0.0558618418,
        "v_cat":"Grocery Store"
    },
    {
        "zip":"E2",
        "city_code":"LDN",
        "n_name":"Bethnal Green, Shoreditch",
        "n_lat":51.529712677,
        "n_lng":-0.0613659993,
        "v_name":"Nico's Cafe",
        "v_lat":51.5272206187,
        "v_lng":-0.0555693292,
        "v_cat":"Caf\u00e9"
    },
    {
        "zip":"E2",
        "city_code":"LDN",
        "n_name":"Bethnal Green, Shoreditch",
        "n_lat":51.529712677,
        "n_lng":-0.0613659993,
        "v_name":"Better York Hall Leisure Centre",
        "v_lat":51.5294919159,
        "v_lng":-0.0553672663,
        "v_cat":"Gym \/ Fitness Center"
    },
    {
        "zip":"E2",
        "city_code":"LDN",
        "n_name":"Bethnal Green, Shoreditch",
        "n_lat":51.529712677,
        "n_lng":-0.0613659993,
        "v_name":"Bus Stop E",
        "v_lat":51.5272452699,
        "v_lng":-0.0575213517,
        "v_cat":"Bus Stop"
    },
    {
        "zip":"E2",
        "city_code":"LDN",
        "n_name":"Bethnal Green, Shoreditch",
        "n_lat":51.529712677,
        "n_lng":-0.0613659993,
        "v_name":"Cambridge Heath Station Bus Stop",
        "v_lat":51.5322716298,
        "v_lng":-0.0571768134,
        "v_cat":"Bus Stop"
    },
    {
        "zip":"E2",
        "city_code":"LDN",
        "n_name":"Bethnal Green, Shoreditch",
        "n_lat":51.529712677,
        "n_lng":-0.0613659993,
        "v_name":"Chiringuito",
        "v_lat":51.527665,
        "v_lng":-0.055335,
        "v_cat":"Tapas Restaurant"
    },
    {
        "zip":"E2",
        "city_code":"LDN",
        "n_name":"Bethnal Green, Shoreditch",
        "n_lat":51.529712677,
        "n_lng":-0.0613659993,
        "v_name":"Moor's Shisha",
        "v_lat":51.532768,
        "v_lng":-0.057844,
        "v_cat":"Eastern European Restaurant"
    },
    {
        "zip":"E2",
        "city_code":"LDN",
        "n_name":"Bethnal Green, Shoreditch",
        "n_lat":51.529712677,
        "n_lng":-0.0613659993,
        "v_name":"Cafe Tr\u00e8s",
        "v_lat":51.533127,
        "v_lng":-0.057202,
        "v_cat":"Caf\u00e9"
    },
    {
        "zip":"E4",
        "city_code":"LDN",
        "n_name":"Chingford, Highams Park",
        "n_lat":51.5001525879,
        "n_lng":-0.1262360066,
        "v_name":"Elizabeth Tower (Big Ben) (Big Ben (Elizabeth Tower))",
        "v_lat":51.50062,
        "v_lng":-0.124578,
        "v_cat":"Monument \/ Landmark"
    },
    {
        "zip":"E4",
        "city_code":"LDN",
        "n_name":"Chingford, Highams Park",
        "n_lat":51.5001525879,
        "n_lng":-0.1262360066,
        "v_name":"Parliament Square",
        "v_lat":51.500595,
        "v_lng":-0.126802,
        "v_cat":"Plaza"
    },
    {
        "zip":"E4",
        "city_code":"LDN",
        "n_name":"Chingford, Highams Park",
        "n_lat":51.5001525879,
        "n_lng":-0.1262360066,
        "v_name":"Royal Institution of Chartered Surveyors (RICS)",
        "v_lat":51.5010211311,
        "v_lng":-0.1280893277,
        "v_cat":"Event Space"
    },
    {
        "zip":"E4",
        "city_code":"LDN",
        "n_name":"Chingford, Highams Park",
        "n_lat":51.5001525879,
        "n_lng":-0.1262360066,
        "v_name":"Churchill War Rooms (Churchill Museum & Cabinet War Rooms)",
        "v_lat":51.502079,
        "v_lng":-0.129305,
        "v_cat":"Historic Site"
    },
    {
        "zip":"E4",
        "city_code":"LDN",
        "n_name":"Chingford, Highams Park",
        "n_lat":51.5001525879,
        "n_lng":-0.1262360066,
        "v_name":"Westminster Hall",
        "v_lat":51.4999472421,
        "v_lng":-0.1253664494,
        "v_cat":"Historic Site"
    },
    {
        "zip":"E4",
        "city_code":"LDN",
        "n_name":"Chingford, Highams Park",
        "n_lat":51.5001525879,
        "n_lng":-0.1262360066,
        "v_name":"Strangers' Bar",
        "v_lat":51.4995641497,
        "v_lng":-0.1239194708,
        "v_cat":"Bar"
    },
    {
        "zip":"E4",
        "city_code":"LDN",
        "n_name":"Chingford, Highams Park",
        "n_lat":51.5001525879,
        "n_lng":-0.1262360066,
        "v_name":"Costa Coffee",
        "v_lat":51.5009336419,
        "v_lng":-0.1248046746,
        "v_cat":"Coffee Shop"
    },
    {
        "zip":"E4",
        "city_code":"LDN",
        "n_name":"Chingford, Highams Park",
        "n_lat":51.5001525879,
        "n_lng":-0.1262360066,
        "v_name":"Winston Churchill Statue",
        "v_lat":51.5007987723,
        "v_lng":-0.1262666132,
        "v_cat":"Outdoor Sculpture"
    },
    {
        "zip":"E4",
        "city_code":"LDN",
        "n_name":"Chingford, Highams Park",
        "n_lat":51.5001525879,
        "n_lng":-0.1262360066,
        "v_name":"Victoria Tower Gardens",
        "v_lat":51.4967292393,
        "v_lng":-0.1250157635,
        "v_cat":"Park"
    },
    {
        "zip":"E4",
        "city_code":"LDN",
        "n_name":"Chingford, Highams Park",
        "n_lat":51.5001525879,
        "n_lng":-0.1262360066,
        "v_name":"Duck Island Cottage",
        "v_lat":51.5028335813,
        "v_lng":-0.1298676014,
        "v_cat":"Garden"
    },
    {
        "zip":"E4",
        "city_code":"LDN",
        "n_name":"Chingford, Highams Park",
        "n_lat":51.5001525879,
        "n_lng":-0.1262360066,
        "v_name":"House of Commons Terrace",
        "v_lat":51.499153886,
        "v_lng":-0.1239890159,
        "v_cat":"Plaza"
    },
    {
        "zip":"E4",
        "city_code":"LDN",
        "n_name":"Chingford, Highams Park",
        "n_lat":51.5001525879,
        "n_lng":-0.1262360066,
        "v_name":"Poets' Corner",
        "v_lat":51.4991858451,
        "v_lng":-0.1264822483,
        "v_cat":"Historic Site"
    },
    {
        "zip":"E4",
        "city_code":"LDN",
        "n_name":"Chingford, Highams Park",
        "n_lat":51.5001525879,
        "n_lng":-0.1262360066,
        "v_name":"Conrad London St. James",
        "v_lat":51.499395566,
        "v_lng":-0.1328043224,
        "v_cat":"Hotel"
    },
    {
        "zip":"E4",
        "city_code":"LDN",
        "n_name":"Chingford, Highams Park",
        "n_lat":51.5001525879,
        "n_lng":-0.1262360066,
        "v_name":"The Westminster Abbey Shop",
        "v_lat":51.4995728869,
        "v_lng":-0.1291685886,
        "v_cat":"Gift Shop"
    },
    {
        "zip":"E4",
        "city_code":"LDN",
        "n_name":"Chingford, Highams Park",
        "n_lat":51.5001525879,
        "n_lng":-0.1262360066,
        "v_name":"Executive Lounge",
        "v_lat":51.4993979934,
        "v_lng":-0.1328401459,
        "v_cat":"Hotel Bar"
    },
    {
        "zip":"E4",
        "city_code":"LDN",
        "n_name":"Chingford, Highams Park",
        "n_lat":51.5001525879,
        "n_lng":-0.1262360066,
        "v_name":"itsu",
        "v_lat":51.4969251372,
        "v_lng":-0.129485858,
        "v_cat":"Sushi Restaurant"
    },
    {
        "zip":"E4",
        "city_code":"LDN",
        "n_name":"Chingford, Highams Park",
        "n_lat":51.5001525879,
        "n_lng":-0.1262360066,
        "v_name":"Abraham Lincoln Statue",
        "v_lat":51.5005547428,
        "v_lng":-0.1276726322,
        "v_cat":"Outdoor Sculpture"
    },
    {
        "zip":"E4",
        "city_code":"LDN",
        "n_name":"Chingford, Highams Park",
        "n_lat":51.5001525879,
        "n_lng":-0.1262360066,
        "v_name":"Women of World War II",
        "v_lat":51.5034506456,
        "v_lng":-0.126007609,
        "v_cat":"Monument \/ Landmark"
    },
    {
        "zip":"E4",
        "city_code":"LDN",
        "n_name":"Chingford, Highams Park",
        "n_lat":51.5001525879,
        "n_lng":-0.1262360066,
        "v_name":"St John\u2019s Smith Square",
        "v_lat":51.4959650223,
        "v_lng":-0.1271984436,
        "v_cat":"Concert Hall"
    },
    {
        "zip":"E4",
        "city_code":"LDN",
        "n_name":"Chingford, Highams Park",
        "n_lat":51.5001525879,
        "n_lng":-0.1262360066,
        "v_name":"hub London Westminster Abbey",
        "v_lat":51.4995885,
        "v_lng":-0.1315428,
        "v_cat":"Hotel"
    },
    {
        "zip":"E4",
        "city_code":"LDN",
        "n_name":"Chingford, Highams Park",
        "n_lat":51.5001525879,
        "n_lng":-0.1262360066,
        "v_name":"Quirinale",
        "v_lat":51.4970053225,
        "v_lng":-0.1266533791,
        "v_cat":"Italian Restaurant"
    },
    {
        "zip":"E4",
        "city_code":"LDN",
        "n_name":"Chingford, Highams Park",
        "n_lat":51.5001525879,
        "n_lng":-0.1262360066,
        "v_name":"Nelson Mandela Statue",
        "v_lat":51.5004744658,
        "v_lng":-0.1271866151,
        "v_cat":"Outdoor Sculpture"
    },
    {
        "zip":"E4",
        "city_code":"LDN",
        "n_name":"Chingford, Highams Park",
        "n_lat":51.5001525879,
        "n_lng":-0.1262360066,
        "v_name":"The Library Lounge at Marriott County Hall",
        "v_lat":51.5019376516,
        "v_lng":-0.12006535,
        "v_cat":"Tea Room"
    },
    {
        "zip":"E4",
        "city_code":"LDN",
        "n_name":"Chingford, Highams Park",
        "n_lat":51.5001525879,
        "n_lng":-0.1262360066,
        "v_name":"Pret A Manger",
        "v_lat":51.5011060105,
        "v_lng":-0.1196050644,
        "v_cat":"Sandwich Place"
    },
    {
        "zip":"E4",
        "city_code":"LDN",
        "n_name":"Chingford, Highams Park",
        "n_lat":51.5001525879,
        "n_lng":-0.1262360066,
        "v_name":"Costa Pronto",
        "v_lat":51.5010020342,
        "v_lng":-0.1247444963,
        "v_cat":"Coffee Shop"
    },
    {
        "zip":"E4",
        "city_code":"LDN",
        "n_name":"Chingford, Highams Park",
        "n_lat":51.5001525879,
        "n_lng":-0.1262360066,
        "v_name":"The Cinnamon Club",
        "v_lat":51.4974910562,
        "v_lng":-0.129592883,
        "v_cat":"Indian Restaurant"
    },
    {
        "zip":"E4",
        "city_code":"LDN",
        "n_name":"Chingford, Highams Park",
        "n_lat":51.5001525879,
        "n_lng":-0.1262360066,
        "v_name":"London Marriott Hotel County Hall",
        "v_lat":51.5010188,
        "v_lng":-0.1191836,
        "v_cat":"Hotel"
    },
    {
        "zip":"E4",
        "city_code":"LDN",
        "n_name":"Chingford, Highams Park",
        "n_lat":51.5001525879,
        "n_lng":-0.1262360066,
        "v_name":"St Thomas\u2019 Garden",
        "v_lat":51.5003652709,
        "v_lng":-0.1193187826,
        "v_cat":"Garden"
    },
    {
        "zip":"E4",
        "city_code":"LDN",
        "n_name":"Chingford, Highams Park",
        "n_lat":51.5001525879,
        "n_lng":-0.1262360066,
        "v_name":"Rag & Bone",
        "v_lat":51.496899269,
        "v_lng":-0.1308209471,
        "v_cat":"Coffee Shop"
    },
    {
        "zip":"E4",
        "city_code":"LDN",
        "n_name":"Chingford, Highams Park",
        "n_lat":51.5001525879,
        "n_lng":-0.1262360066,
        "v_name":"College Green",
        "v_lat":51.4979000208,
        "v_lng":-0.126122399,
        "v_cat":"Garden"
    },
    {
        "zip":"E4",
        "city_code":"LDN",
        "n_name":"Chingford, Highams Park",
        "n_lat":51.5001525879,
        "n_lng":-0.1262360066,
        "v_name":"The Gym & Club at County Hall",
        "v_lat":51.5020789353,
        "v_lng":-0.1197390873,
        "v_cat":"Gym"
    },
    {
        "zip":"E4",
        "city_code":"LDN",
        "n_name":"Chingford, Highams Park",
        "n_lat":51.5001525879,
        "n_lng":-0.1262360066,
        "v_name":"The Wash House Cafe",
        "v_lat":51.4974410158,
        "v_lng":-0.1298597449,
        "v_cat":"Caf\u00e9"
    },
    {
        "zip":"E4",
        "city_code":"LDN",
        "n_name":"Chingford, Highams Park",
        "n_lat":51.5001525879,
        "n_lng":-0.1262360066,
        "v_name":"Blue Boar",
        "v_lat":51.4997159597,
        "v_lng":-0.1321111817,
        "v_cat":"Restaurant"
    },
    {
        "zip":"E4",
        "city_code":"LDN",
        "n_name":"Chingford, Highams Park",
        "n_lat":51.5001525879,
        "n_lng":-0.1262360066,
        "v_name":"Pret A Manger",
        "v_lat":51.4996038597,
        "v_lng":-0.1325015706,
        "v_cat":"Sandwich Place"
    },
    {
        "zip":"E4",
        "city_code":"LDN",
        "n_name":"Chingford, Highams Park",
        "n_lat":51.5001525879,
        "n_lng":-0.1262360066,
        "v_name":"Munich Cricket Club",
        "v_lat":51.49813,
        "v_lng":-0.132441,
        "v_cat":"Beer Bar"
    },
    {
        "zip":"E4",
        "city_code":"LDN",
        "n_name":"Chingford, Highams Park",
        "n_lat":51.5001525879,
        "n_lng":-0.1262360066,
        "v_name":"The Feathers",
        "v_lat":51.4993898829,
        "v_lng":-0.1330879624,
        "v_cat":"Pub"
    },
    {
        "zip":"E4",
        "city_code":"LDN",
        "n_name":"Chingford, Highams Park",
        "n_lat":51.5001525879,
        "n_lng":-0.1262360066,
        "v_name":"Namco Funscape County Hall",
        "v_lat":51.5014004549,
        "v_lng":-0.1193541764,
        "v_cat":"Arcade"
    },
    {
        "zip":"E4",
        "city_code":"LDN",
        "n_name":"Chingford, Highams Park",
        "n_lat":51.5001525879,
        "n_lng":-0.1262360066,
        "v_name":"Zen China Restaurant",
        "v_lat":51.5020587652,
        "v_lng":-0.119768506,
        "v_cat":"Chinese Restaurant"
    },
    {
        "zip":"E4",
        "city_code":"LDN",
        "n_name":"Chingford, Highams Park",
        "n_lat":51.5001525879,
        "n_lng":-0.1262360066,
        "v_name":"Pickles Sandwich Bar",
        "v_lat":51.50091298,
        "v_lng":-0.1298953343,
        "v_cat":"Caf\u00e9"
    },
    {
        "zip":"E4",
        "city_code":"LDN",
        "n_name":"Chingford, Highams Park",
        "n_lat":51.5001525879,
        "n_lng":-0.1262360066,
        "v_name":"Ma La Sichuan",
        "v_lat":51.4967814895,
        "v_lng":-0.1307089881,
        "v_cat":"Asian Restaurant"
    },
    {
        "zip":"E4",
        "city_code":"LDN",
        "n_name":"Chingford, Highams Park",
        "n_lat":51.5001525879,
        "n_lng":-0.1262360066,
        "v_name":"Westminster Arms",
        "v_lat":51.5004796013,
        "v_lng":-0.1295436868,
        "v_cat":"Pub"
    },
    {
        "zip":"E4",
        "city_code":"LDN",
        "n_name":"Chingford, Highams Park",
        "n_lat":51.5001525879,
        "n_lng":-0.1262360066,
        "v_name":"Starbucks",
        "v_lat":51.498196,
        "v_lng":-0.132676,
        "v_cat":"Coffee Shop"
    },
    {
        "zip":"E4",
        "city_code":"LDN",
        "n_name":"Chingford, Highams Park",
        "n_lat":51.5001525879,
        "n_lng":-0.1262360066,
        "v_name":"Wesley's Cafe",
        "v_lat":51.5001385665,
        "v_lng":-0.1297786737,
        "v_cat":"Caf\u00e9"
    },
    {
        "zip":"E4",
        "city_code":"LDN",
        "n_name":"Chingford, Highams Park",
        "n_lat":51.5001525879,
        "n_lng":-0.1262360066,
        "v_name":"Costa Coffee",
        "v_lat":51.4995850617,
        "v_lng":-0.1330637758,
        "v_cat":"Coffee Shop"
    },
    {
        "zip":"E4",
        "city_code":"LDN",
        "n_name":"Chingford, Highams Park",
        "n_lat":51.5001525879,
        "n_lng":-0.1262360066,
        "v_name":"The Two Chairmen",
        "v_lat":51.5006326477,
        "v_lng":-0.1317821384,
        "v_cat":"Pub"
    },
    {
        "zip":"E4",
        "city_code":"LDN",
        "n_name":"Chingford, Highams Park",
        "n_lat":51.5001525879,
        "n_lng":-0.1262360066,
        "v_name":"Pret A Manger",
        "v_lat":51.4968357444,
        "v_lng":-0.1291979294,
        "v_cat":"Sandwich Place"
    },
    {
        "zip":"E4",
        "city_code":"LDN",
        "n_name":"Chingford, Highams Park",
        "n_lat":51.5001525879,
        "n_lng":-0.1262360066,
        "v_name":"Mulberry Tree",
        "v_lat":51.501736,
        "v_lng":-0.13076,
        "v_cat":"Tree"
    },
    {
        "zip":"E4",
        "city_code":"LDN",
        "n_name":"Chingford, Highams Park",
        "n_lat":51.5001525879,
        "n_lng":-0.1262360066,
        "v_name":"The Sanctuary House Hotel",
        "v_lat":51.4995562329,
        "v_lng":-0.1318144866,
        "v_cat":"Pub"
    },
    {
        "zip":"E8",
        "city_code":"LDN",
        "n_name":"Hackney, Dalston",
        "n_lat":51.5440979004,
        "n_lng":-0.0657769963,
        "v_name":"Violet",
        "v_lat":51.5454738681,
        "v_lng":-0.0640435561,
        "v_cat":"Caf\u00e9"
    },
    {
        "zip":"E8",
        "city_code":"LDN",
        "n_name":"Hackney, Dalston",
        "n_lat":51.5440979004,
        "n_lng":-0.0657769963,
        "v_name":"The Spurstowe Arms",
        "v_lat":51.5453984454,
        "v_lng":-0.0634088737,
        "v_cat":"Gastropub"
    },
    {
        "zip":"E8",
        "city_code":"LDN",
        "n_name":"Hackney, Dalston",
        "n_lat":51.5440979004,
        "n_lng":-0.0657769963,
        "v_name":"London Fields Lido",
        "v_lat":51.5422626572,
        "v_lng":-0.0613385148,
        "v_cat":"Pool"
    },
    {
        "zip":"E8",
        "city_code":"LDN",
        "n_name":"Hackney, Dalston",
        "n_lat":51.5440979004,
        "n_lng":-0.0657769963,
        "v_name":"Pidgin",
        "v_lat":51.5456195378,
        "v_lng":-0.0611384322,
        "v_cat":"Modern European Restaurant"
    },
    {
        "zip":"E8",
        "city_code":"LDN",
        "n_name":"Hackney, Dalston",
        "n_lat":51.5440979004,
        "n_lng":-0.0657769963,
        "v_name":"Borough Wines",
        "v_lat":51.545677,
        "v_lng":-0.061502,
        "v_cat":"Wine Shop"
    },
    {
        "zip":"E8",
        "city_code":"LDN",
        "n_name":"Hackney, Dalston",
        "n_lat":51.5440979004,
        "n_lng":-0.0657769963,
        "v_name":"Duke of Richmond",
        "v_lat":51.54293,
        "v_lng":-0.069766,
        "v_cat":"Restaurant"
    },
    {
        "zip":"E8",
        "city_code":"LDN",
        "n_name":"Hackney, Dalston",
        "n_lat":51.5440979004,
        "n_lng":-0.0657769963,
        "v_name":"The Prince George",
        "v_lat":51.5450375221,
        "v_lng":-0.0682368825,
        "v_cat":"Pub"
    },
    {
        "zip":"E8",
        "city_code":"LDN",
        "n_name":"Hackney, Dalston",
        "n_lat":51.5440979004,
        "n_lng":-0.0657769963,
        "v_name":"Allpress Espresso Roastery & Cafe",
        "v_lat":51.5463572722,
        "v_lng":-0.0705515472,
        "v_cat":"Coffee Shop"
    },
    {
        "zip":"E8",
        "city_code":"LDN",
        "n_name":"Hackney, Dalston",
        "n_lat":51.5440979004,
        "n_lng":-0.0657769963,
        "v_name":"Footnote",
        "v_lat":51.5455761503,
        "v_lng":-0.0619663968,
        "v_cat":"Caf\u00e9"
    },
    {
        "zip":"E8",
        "city_code":"LDN",
        "n_name":"Hackney, Dalston",
        "n_lat":51.5440979004,
        "n_lng":-0.0657769963,
        "v_name":"Hash E8",
        "v_lat":51.5483097847,
        "v_lng":-0.0654547831,
        "v_cat":"Breakfast Spot"
    },
    {
        "zip":"E8",
        "city_code":"LDN",
        "n_name":"Hackney, Dalston",
        "n_lat":51.5440979004,
        "n_lng":-0.0657769963,
        "v_name":"Angelina",
        "v_lat":51.548393,
        "v_lng":-0.065299,
        "v_cat":"Italian Restaurant"
    },
    {
        "zip":"E8",
        "city_code":"LDN",
        "n_name":"Hackney, Dalston",
        "n_lat":51.5440979004,
        "n_lng":-0.0657769963,
        "v_name":"Healthy Stuff",
        "v_lat":51.548182,
        "v_lng":-0.065408,
        "v_cat":"Coffee Shop"
    },
    {
        "zip":"E8",
        "city_code":"LDN",
        "n_name":"Hackney, Dalston",
        "n_lat":51.5440979004,
        "n_lng":-0.0657769963,
        "v_name":"Little Duck The Picklery",
        "v_lat":51.5462467376,
        "v_lng":-0.0707231021,
        "v_cat":"Restaurant"
    },
    {
        "zip":"E8",
        "city_code":"LDN",
        "n_name":"Hackney, Dalston",
        "n_lat":51.5440979004,
        "n_lng":-0.0657769963,
        "v_name":"The Three Compasses",
        "v_lat":51.5481147119,
        "v_lng":-0.0686182815,
        "v_cat":"Pub"
    },
    {
        "zip":"E8",
        "city_code":"LDN",
        "n_name":"Hackney, Dalston",
        "n_lat":51.5440979004,
        "n_lng":-0.0657769963,
        "v_name":"The Blue Studios",
        "v_lat":51.5477853197,
        "v_lng":-0.0660530119,
        "v_cat":"Music Venue"
    },
    {
        "zip":"E8",
        "city_code":"LDN",
        "n_name":"Hackney, Dalston",
        "n_lat":51.5440979004,
        "n_lng":-0.0657769963,
        "v_name":"The Victoria",
        "v_lat":51.5457795215,
        "v_lng":-0.0698101274,
        "v_cat":"Pub"
    },
    {
        "zip":"E8",
        "city_code":"LDN",
        "n_name":"Hackney, Dalston",
        "n_lat":51.5440979004,
        "n_lng":-0.0657769963,
        "v_name":"Dalston Local Store",
        "v_lat":51.546208,
        "v_lng":-0.072126,
        "v_cat":"Convenience Store"
    },
    {
        "zip":"E8",
        "city_code":"LDN",
        "n_name":"Hackney, Dalston",
        "n_lat":51.5440979004,
        "n_lng":-0.0657769963,
        "v_name":"Queensbridge Sports and Community Centre",
        "v_lat":51.5422650538,
        "v_lng":-0.0716305207,
        "v_cat":"Gym \/ Fitness Center"
    },
    {
        "zip":"E8",
        "city_code":"LDN",
        "n_name":"Hackney, Dalston",
        "n_lat":51.5440979004,
        "n_lng":-0.0657769963,
        "v_name":"Furanxo",
        "v_lat":51.547718,
        "v_lng":-0.06893311,
        "v_cat":"Wine Shop"
    },
    {
        "zip":"E8",
        "city_code":"LDN",
        "n_name":"Hackney, Dalston",
        "n_lat":51.5440979004,
        "n_lng":-0.0657769963,
        "v_name":"Sadhana Yoga & Wellbeing",
        "v_lat":51.547528,
        "v_lng":-0.069944,
        "v_cat":"Yoga Studio"
    },
    {
        "zip":"WC1",
        "city_code":"LDN",
        "n_name":"Bloomsbury, Grays Inn",
        "n_lat":51.5001525879,
        "n_lng":-0.1262360066,
        "v_name":"Elizabeth Tower (Big Ben) (Big Ben (Elizabeth Tower))",
        "v_lat":51.50062,
        "v_lng":-0.124578,
        "v_cat":"Monument \/ Landmark"
    },
    {
        "zip":"WC1",
        "city_code":"LDN",
        "n_name":"Bloomsbury, Grays Inn",
        "n_lat":51.5001525879,
        "n_lng":-0.1262360066,
        "v_name":"Parliament Square",
        "v_lat":51.500595,
        "v_lng":-0.126802,
        "v_cat":"Plaza"
    },
    {
        "zip":"WC1",
        "city_code":"LDN",
        "n_name":"Bloomsbury, Grays Inn",
        "n_lat":51.5001525879,
        "n_lng":-0.1262360066,
        "v_name":"Royal Institution of Chartered Surveyors (RICS)",
        "v_lat":51.5010211311,
        "v_lng":-0.1280893277,
        "v_cat":"Event Space"
    },
    {
        "zip":"WC1",
        "city_code":"LDN",
        "n_name":"Bloomsbury, Grays Inn",
        "n_lat":51.5001525879,
        "n_lng":-0.1262360066,
        "v_name":"Churchill War Rooms (Churchill Museum & Cabinet War Rooms)",
        "v_lat":51.502079,
        "v_lng":-0.129305,
        "v_cat":"Historic Site"
    },
    {
        "zip":"WC1",
        "city_code":"LDN",
        "n_name":"Bloomsbury, Grays Inn",
        "n_lat":51.5001525879,
        "n_lng":-0.1262360066,
        "v_name":"Westminster Hall",
        "v_lat":51.4999472421,
        "v_lng":-0.1253664494,
        "v_cat":"Historic Site"
    },
    {
        "zip":"WC1",
        "city_code":"LDN",
        "n_name":"Bloomsbury, Grays Inn",
        "n_lat":51.5001525879,
        "n_lng":-0.1262360066,
        "v_name":"Strangers' Bar",
        "v_lat":51.4995641497,
        "v_lng":-0.1239194708,
        "v_cat":"Bar"
    },
    {
        "zip":"WC1",
        "city_code":"LDN",
        "n_name":"Bloomsbury, Grays Inn",
        "n_lat":51.5001525879,
        "n_lng":-0.1262360066,
        "v_name":"Costa Coffee",
        "v_lat":51.5009336419,
        "v_lng":-0.1248046746,
        "v_cat":"Coffee Shop"
    },
    {
        "zip":"WC1",
        "city_code":"LDN",
        "n_name":"Bloomsbury, Grays Inn",
        "n_lat":51.5001525879,
        "n_lng":-0.1262360066,
        "v_name":"Winston Churchill Statue",
        "v_lat":51.5007987723,
        "v_lng":-0.1262666132,
        "v_cat":"Outdoor Sculpture"
    },
    {
        "zip":"WC1",
        "city_code":"LDN",
        "n_name":"Bloomsbury, Grays Inn",
        "n_lat":51.5001525879,
        "n_lng":-0.1262360066,
        "v_name":"Victoria Tower Gardens",
        "v_lat":51.4967292393,
        "v_lng":-0.1250157635,
        "v_cat":"Park"
    },
    {
        "zip":"WC1",
        "city_code":"LDN",
        "n_name":"Bloomsbury, Grays Inn",
        "n_lat":51.5001525879,
        "n_lng":-0.1262360066,
        "v_name":"Duck Island Cottage",
        "v_lat":51.5028335813,
        "v_lng":-0.1298676014,
        "v_cat":"Garden"
    },
    {
        "zip":"WC1",
        "city_code":"LDN",
        "n_name":"Bloomsbury, Grays Inn",
        "n_lat":51.5001525879,
        "n_lng":-0.1262360066,
        "v_name":"House of Commons Terrace",
        "v_lat":51.499153886,
        "v_lng":-0.1239890159,
        "v_cat":"Plaza"
    },
    {
        "zip":"WC1",
        "city_code":"LDN",
        "n_name":"Bloomsbury, Grays Inn",
        "n_lat":51.5001525879,
        "n_lng":-0.1262360066,
        "v_name":"Poets' Corner",
        "v_lat":51.4991858451,
        "v_lng":-0.1264822483,
        "v_cat":"Historic Site"
    },
    {
        "zip":"WC1",
        "city_code":"LDN",
        "n_name":"Bloomsbury, Grays Inn",
        "n_lat":51.5001525879,
        "n_lng":-0.1262360066,
        "v_name":"Conrad London St. James",
        "v_lat":51.499395566,
        "v_lng":-0.1328043224,
        "v_cat":"Hotel"
    },
    {
        "zip":"WC1",
        "city_code":"LDN",
        "n_name":"Bloomsbury, Grays Inn",
        "n_lat":51.5001525879,
        "n_lng":-0.1262360066,
        "v_name":"The Westminster Abbey Shop",
        "v_lat":51.4995728869,
        "v_lng":-0.1291685886,
        "v_cat":"Gift Shop"
    },
    {
        "zip":"WC1",
        "city_code":"LDN",
        "n_name":"Bloomsbury, Grays Inn",
        "n_lat":51.5001525879,
        "n_lng":-0.1262360066,
        "v_name":"Executive Lounge",
        "v_lat":51.4993979934,
        "v_lng":-0.1328401459,
        "v_cat":"Hotel Bar"
    },
    {
        "zip":"WC1",
        "city_code":"LDN",
        "n_name":"Bloomsbury, Grays Inn",
        "n_lat":51.5001525879,
        "n_lng":-0.1262360066,
        "v_name":"itsu",
        "v_lat":51.4969251372,
        "v_lng":-0.129485858,
        "v_cat":"Sushi Restaurant"
    },
    {
        "zip":"WC1",
        "city_code":"LDN",
        "n_name":"Bloomsbury, Grays Inn",
        "n_lat":51.5001525879,
        "n_lng":-0.1262360066,
        "v_name":"Abraham Lincoln Statue",
        "v_lat":51.5005547428,
        "v_lng":-0.1276726322,
        "v_cat":"Outdoor Sculpture"
    },
    {
        "zip":"WC1",
        "city_code":"LDN",
        "n_name":"Bloomsbury, Grays Inn",
        "n_lat":51.5001525879,
        "n_lng":-0.1262360066,
        "v_name":"Women of World War II",
        "v_lat":51.5034506456,
        "v_lng":-0.126007609,
        "v_cat":"Monument \/ Landmark"
    },
    {
        "zip":"WC1",
        "city_code":"LDN",
        "n_name":"Bloomsbury, Grays Inn",
        "n_lat":51.5001525879,
        "n_lng":-0.1262360066,
        "v_name":"St John\u2019s Smith Square",
        "v_lat":51.4959650223,
        "v_lng":-0.1271984436,
        "v_cat":"Concert Hall"
    },
    {
        "zip":"WC1",
        "city_code":"LDN",
        "n_name":"Bloomsbury, Grays Inn",
        "n_lat":51.5001525879,
        "n_lng":-0.1262360066,
        "v_name":"hub London Westminster Abbey",
        "v_lat":51.4995885,
        "v_lng":-0.1315428,
        "v_cat":"Hotel"
    },
    {
        "zip":"WC1",
        "city_code":"LDN",
        "n_name":"Bloomsbury, Grays Inn",
        "n_lat":51.5001525879,
        "n_lng":-0.1262360066,
        "v_name":"Quirinale",
        "v_lat":51.4970053225,
        "v_lng":-0.1266533791,
        "v_cat":"Italian Restaurant"
    },
    {
        "zip":"WC1",
        "city_code":"LDN",
        "n_name":"Bloomsbury, Grays Inn",
        "n_lat":51.5001525879,
        "n_lng":-0.1262360066,
        "v_name":"Nelson Mandela Statue",
        "v_lat":51.5004744658,
        "v_lng":-0.1271866151,
        "v_cat":"Outdoor Sculpture"
    },
    {
        "zip":"WC1",
        "city_code":"LDN",
        "n_name":"Bloomsbury, Grays Inn",
        "n_lat":51.5001525879,
        "n_lng":-0.1262360066,
        "v_name":"The Library Lounge at Marriott County Hall",
        "v_lat":51.5019376516,
        "v_lng":-0.12006535,
        "v_cat":"Tea Room"
    },
    {
        "zip":"WC1",
        "city_code":"LDN",
        "n_name":"Bloomsbury, Grays Inn",
        "n_lat":51.5001525879,
        "n_lng":-0.1262360066,
        "v_name":"Pret A Manger",
        "v_lat":51.5011060105,
        "v_lng":-0.1196050644,
        "v_cat":"Sandwich Place"
    },
    {
        "zip":"WC1",
        "city_code":"LDN",
        "n_name":"Bloomsbury, Grays Inn",
        "n_lat":51.5001525879,
        "n_lng":-0.1262360066,
        "v_name":"Costa Pronto",
        "v_lat":51.5010020342,
        "v_lng":-0.1247444963,
        "v_cat":"Coffee Shop"
    },
    {
        "zip":"WC1",
        "city_code":"LDN",
        "n_name":"Bloomsbury, Grays Inn",
        "n_lat":51.5001525879,
        "n_lng":-0.1262360066,
        "v_name":"The Cinnamon Club",
        "v_lat":51.4974910562,
        "v_lng":-0.129592883,
        "v_cat":"Indian Restaurant"
    },
    {
        "zip":"WC1",
        "city_code":"LDN",
        "n_name":"Bloomsbury, Grays Inn",
        "n_lat":51.5001525879,
        "n_lng":-0.1262360066,
        "v_name":"London Marriott Hotel County Hall",
        "v_lat":51.5010188,
        "v_lng":-0.1191836,
        "v_cat":"Hotel"
    },
    {
        "zip":"WC1",
        "city_code":"LDN",
        "n_name":"Bloomsbury, Grays Inn",
        "n_lat":51.5001525879,
        "n_lng":-0.1262360066,
        "v_name":"St Thomas\u2019 Garden",
        "v_lat":51.5003652709,
        "v_lng":-0.1193187826,
        "v_cat":"Garden"
    },
    {
        "zip":"WC1",
        "city_code":"LDN",
        "n_name":"Bloomsbury, Grays Inn",
        "n_lat":51.5001525879,
        "n_lng":-0.1262360066,
        "v_name":"Rag & Bone",
        "v_lat":51.496899269,
        "v_lng":-0.1308209471,
        "v_cat":"Coffee Shop"
    },
    {
        "zip":"WC1",
        "city_code":"LDN",
        "n_name":"Bloomsbury, Grays Inn",
        "n_lat":51.5001525879,
        "n_lng":-0.1262360066,
        "v_name":"College Green",
        "v_lat":51.4979000208,
        "v_lng":-0.126122399,
        "v_cat":"Garden"
    },
    {
        "zip":"WC1",
        "city_code":"LDN",
        "n_name":"Bloomsbury, Grays Inn",
        "n_lat":51.5001525879,
        "n_lng":-0.1262360066,
        "v_name":"The Gym & Club at County Hall",
        "v_lat":51.5020789353,
        "v_lng":-0.1197390873,
        "v_cat":"Gym"
    },
    {
        "zip":"WC1",
        "city_code":"LDN",
        "n_name":"Bloomsbury, Grays Inn",
        "n_lat":51.5001525879,
        "n_lng":-0.1262360066,
        "v_name":"The Wash House Cafe",
        "v_lat":51.4974410158,
        "v_lng":-0.1298597449,
        "v_cat":"Caf\u00e9"
    },
    {
        "zip":"WC1",
        "city_code":"LDN",
        "n_name":"Bloomsbury, Grays Inn",
        "n_lat":51.5001525879,
        "n_lng":-0.1262360066,
        "v_name":"Blue Boar",
        "v_lat":51.4997159597,
        "v_lng":-0.1321111817,
        "v_cat":"Restaurant"
    },
    {
        "zip":"WC1",
        "city_code":"LDN",
        "n_name":"Bloomsbury, Grays Inn",
        "n_lat":51.5001525879,
        "n_lng":-0.1262360066,
        "v_name":"Pret A Manger",
        "v_lat":51.4996038597,
        "v_lng":-0.1325015706,
        "v_cat":"Sandwich Place"
    },
    {
        "zip":"WC1",
        "city_code":"LDN",
        "n_name":"Bloomsbury, Grays Inn",
        "n_lat":51.5001525879,
        "n_lng":-0.1262360066,
        "v_name":"Munich Cricket Club",
        "v_lat":51.49813,
        "v_lng":-0.132441,
        "v_cat":"Beer Bar"
    },
    {
        "zip":"WC1",
        "city_code":"LDN",
        "n_name":"Bloomsbury, Grays Inn",
        "n_lat":51.5001525879,
        "n_lng":-0.1262360066,
        "v_name":"The Feathers",
        "v_lat":51.4993898829,
        "v_lng":-0.1330879624,
        "v_cat":"Pub"
    },
    {
        "zip":"WC1",
        "city_code":"LDN",
        "n_name":"Bloomsbury, Grays Inn",
        "n_lat":51.5001525879,
        "n_lng":-0.1262360066,
        "v_name":"Namco Funscape County Hall",
        "v_lat":51.5014004549,
        "v_lng":-0.1193541764,
        "v_cat":"Arcade"
    },
    {
        "zip":"WC1",
        "city_code":"LDN",
        "n_name":"Bloomsbury, Grays Inn",
        "n_lat":51.5001525879,
        "n_lng":-0.1262360066,
        "v_name":"Zen China Restaurant",
        "v_lat":51.5020587652,
        "v_lng":-0.119768506,
        "v_cat":"Chinese Restaurant"
    },
    {
        "zip":"WC1",
        "city_code":"LDN",
        "n_name":"Bloomsbury, Grays Inn",
        "n_lat":51.5001525879,
        "n_lng":-0.1262360066,
        "v_name":"Pickles Sandwich Bar",
        "v_lat":51.50091298,
        "v_lng":-0.1298953343,
        "v_cat":"Caf\u00e9"
    },
    {
        "zip":"WC1",
        "city_code":"LDN",
        "n_name":"Bloomsbury, Grays Inn",
        "n_lat":51.5001525879,
        "n_lng":-0.1262360066,
        "v_name":"Ma La Sichuan",
        "v_lat":51.4967814895,
        "v_lng":-0.1307089881,
        "v_cat":"Asian Restaurant"
    },
    {
        "zip":"WC1",
        "city_code":"LDN",
        "n_name":"Bloomsbury, Grays Inn",
        "n_lat":51.5001525879,
        "n_lng":-0.1262360066,
        "v_name":"Westminster Arms",
        "v_lat":51.5004796013,
        "v_lng":-0.1295436868,
        "v_cat":"Pub"
    },
    {
        "zip":"WC1",
        "city_code":"LDN",
        "n_name":"Bloomsbury, Grays Inn",
        "n_lat":51.5001525879,
        "n_lng":-0.1262360066,
        "v_name":"Starbucks",
        "v_lat":51.498196,
        "v_lng":-0.132676,
        "v_cat":"Coffee Shop"
    },
    {
        "zip":"WC1",
        "city_code":"LDN",
        "n_name":"Bloomsbury, Grays Inn",
        "n_lat":51.5001525879,
        "n_lng":-0.1262360066,
        "v_name":"Wesley's Cafe",
        "v_lat":51.5001385665,
        "v_lng":-0.1297786737,
        "v_cat":"Caf\u00e9"
    },
    {
        "zip":"WC1",
        "city_code":"LDN",
        "n_name":"Bloomsbury, Grays Inn",
        "n_lat":51.5001525879,
        "n_lng":-0.1262360066,
        "v_name":"Costa Coffee",
        "v_lat":51.4995850617,
        "v_lng":-0.1330637758,
        "v_cat":"Coffee Shop"
    },
    {
        "zip":"WC1",
        "city_code":"LDN",
        "n_name":"Bloomsbury, Grays Inn",
        "n_lat":51.5001525879,
        "n_lng":-0.1262360066,
        "v_name":"The Two Chairmen",
        "v_lat":51.5006326477,
        "v_lng":-0.1317821384,
        "v_cat":"Pub"
    },
    {
        "zip":"WC1",
        "city_code":"LDN",
        "n_name":"Bloomsbury, Grays Inn",
        "n_lat":51.5001525879,
        "n_lng":-0.1262360066,
        "v_name":"Pret A Manger",
        "v_lat":51.4968357444,
        "v_lng":-0.1291979294,
        "v_cat":"Sandwich Place"
    },
    {
        "zip":"WC1",
        "city_code":"LDN",
        "n_name":"Bloomsbury, Grays Inn",
        "n_lat":51.5001525879,
        "n_lng":-0.1262360066,
        "v_name":"Mulberry Tree",
        "v_lat":51.501736,
        "v_lng":-0.13076,
        "v_cat":"Tree"
    },
    {
        "zip":"WC1",
        "city_code":"LDN",
        "n_name":"Bloomsbury, Grays Inn",
        "n_lat":51.5001525879,
        "n_lng":-0.1262360066,
        "v_name":"The Sanctuary House Hotel",
        "v_lat":51.4995562329,
        "v_lng":-0.1318144866,
        "v_cat":"Pub"
    },
    {
        "zip":"WC2",
        "city_code":"LDN",
        "n_name":"Covent Garden, Holborn, Strand",
        "n_lat":51.5081275,
        "n_lng":-0.1253257,
        "v_name":"Gordon's Wine Bar",
        "v_lat":51.507911093,
        "v_lng":-0.1232931018,
        "v_cat":"Wine Bar"
    },
    {
        "zip":"WC2",
        "city_code":"LDN",
        "n_name":"Covent Garden, Holborn, Strand",
        "n_lat":51.5081275,
        "n_lng":-0.1253257,
        "v_name":"Corinthia Hotel",
        "v_lat":51.5066067235,
        "v_lng":-0.1244601699,
        "v_cat":"Hotel"
    },
    {
        "zip":"WC2",
        "city_code":"LDN",
        "n_name":"Covent Garden, Holborn, Strand",
        "n_lat":51.5081275,
        "n_lng":-0.1253257,
        "v_name":"Trafalgar Square",
        "v_lat":51.507987,
        "v_lng":-0.128048,
        "v_cat":"Plaza"
    },
    {
        "zip":"WC2",
        "city_code":"LDN",
        "n_name":"Covent Garden, Holborn, Strand",
        "n_lat":51.5081275,
        "n_lng":-0.1253257,
        "v_name":"East Trafalgar Square Fountain",
        "v_lat":51.5080880516,
        "v_lng":-0.1276999712,
        "v_cat":"Fountain"
    },
    {
        "zip":"WC2",
        "city_code":"LDN",
        "n_name":"Covent Garden, Holborn, Strand",
        "n_lat":51.5081275,
        "n_lng":-0.1253257,
        "v_name":"National Gallery",
        "v_lat":51.5088760101,
        "v_lng":-0.1284778118,
        "v_cat":"Art Museum"
    },
    {
        "zip":"WC2",
        "city_code":"LDN",
        "n_name":"Covent Garden, Holborn, Strand",
        "n_lat":51.5081275,
        "n_lng":-0.1253257,
        "v_name":"Victoria Embankment Gardens",
        "v_lat":51.5081352234,
        "v_lng":-0.1220788945,
        "v_cat":"Garden"
    },
    {
        "zip":"WC2",
        "city_code":"LDN",
        "n_name":"Covent Garden, Holborn, Strand",
        "n_lat":51.5081275,
        "n_lng":-0.1253257,
        "v_name":"St Martin-in-the-Fields",
        "v_lat":51.5087457428,
        "v_lng":-0.1265068952,
        "v_cat":"Church"
    },
    {
        "zip":"WC2",
        "city_code":"LDN",
        "n_name":"Covent Garden, Holborn, Strand",
        "n_lat":51.5081275,
        "n_lng":-0.1253257,
        "v_name":"English National Opera",
        "v_lat":51.509803704,
        "v_lng":-0.1269447256,
        "v_cat":"Opera House"
    },
    {
        "zip":"WC2",
        "city_code":"LDN",
        "n_name":"Covent Garden, Holborn, Strand",
        "n_lat":51.5081275,
        "n_lng":-0.1253257,
        "v_name":"Mr Fogg's Society of Exploration",
        "v_lat":51.5097694566,
        "v_lng":-0.1235315274,
        "v_cat":"Cocktail Bar"
    },
    {
        "zip":"WC2",
        "city_code":"LDN",
        "n_name":"Covent Garden, Holborn, Strand",
        "n_lat":51.5081275,
        "n_lng":-0.1253257,
        "v_name":"Tandoor Chop House",
        "v_lat":51.5091920569,
        "v_lng":-0.1256382945,
        "v_cat":"North Indian Restaurant"
    },
    {
        "zip":"WC2",
        "city_code":"LDN",
        "n_name":"Covent Garden, Holborn, Strand",
        "n_lat":51.5081275,
        "n_lng":-0.1253257,
        "v_name":"Retro Bar",
        "v_lat":51.5091529897,
        "v_lng":-0.1235325417,
        "v_cat":"Gay Bar"
    },
    {
        "zip":"WC2",
        "city_code":"LDN",
        "n_name":"Covent Garden, Holborn, Strand",
        "n_lat":51.5081275,
        "n_lng":-0.1253257,
        "v_name":"The Whisky Exchange",
        "v_lat":51.5099740352,
        "v_lng":-0.1237129835,
        "v_cat":"Liquor Store"
    },
    {
        "zip":"WC2",
        "city_code":"LDN",
        "n_name":"Covent Garden, Holborn, Strand",
        "n_lat":51.5081275,
        "n_lng":-0.1253257,
        "v_name":"Nelson's Column",
        "v_lat":51.5077441502,
        "v_lng":-0.1279306412,
        "v_cat":"Monument \/ Landmark"
    },
    {
        "zip":"WC2",
        "city_code":"LDN",
        "n_name":"Covent Garden, Holborn, Strand",
        "n_lat":51.5081275,
        "n_lng":-0.1253257,
        "v_name":"Whitehall Gardens",
        "v_lat":51.5063537351,
        "v_lng":-0.1228996847,
        "v_cat":"Garden"
    },
    {
        "zip":"WC2",
        "city_code":"LDN",
        "n_name":"Covent Garden, Holborn, Strand",
        "n_lat":51.5081275,
        "n_lng":-0.1253257,
        "v_name":"Five Guys",
        "v_lat":51.5085198254,
        "v_lng":-0.1243628822,
        "v_cat":"Burger Joint"
    },
    {
        "zip":"WC2",
        "city_code":"LDN",
        "n_name":"Covent Garden, Holborn, Strand",
        "n_lat":51.5081275,
        "n_lng":-0.1253257,
        "v_name":"Superdrug",
        "v_lat":51.5091739789,
        "v_lng":-0.1240542676,
        "v_cat":"Pharmacy"
    },
    {
        "zip":"WC2",
        "city_code":"LDN",
        "n_name":"Covent Garden, Holborn, Strand",
        "n_lat":51.5081275,
        "n_lng":-0.1253257,
        "v_name":"Smith & Wollensky",
        "v_lat":51.5095571945,
        "v_lng":-0.1222409913,
        "v_cat":"Steakhouse"
    },
    {
        "zip":"WC2",
        "city_code":"LDN",
        "n_name":"Covent Garden, Holborn, Strand",
        "n_lat":51.5081275,
        "n_lng":-0.1253257,
        "v_name":"Flat Iron",
        "v_lat":51.5108414675,
        "v_lng":-0.1240927021,
        "v_cat":"Steakhouse"
    },
    {
        "zip":"WC2",
        "city_code":"LDN",
        "n_name":"Covent Garden, Holborn, Strand",
        "n_lat":51.5081275,
        "n_lng":-0.1253257,
        "v_name":"Amorino",
        "v_lat":51.5104272662,
        "v_lng":-0.1284008149,
        "v_cat":"Ice Cream Shop"
    },
    {
        "zip":"WC2",
        "city_code":"LDN",
        "n_name":"Covent Garden, Holborn, Strand",
        "n_lat":51.5081275,
        "n_lng":-0.1253257,
        "v_name":"WA Cafe",
        "v_lat":51.511009,
        "v_lng":-0.126614,
        "v_cat":"Caf\u00e9"
    },
    {
        "zip":"WC2",
        "city_code":"LDN",
        "n_name":"Covent Garden, Holborn, Strand",
        "n_lat":51.5081275,
        "n_lng":-0.1253257,
        "v_name":"The Savoy Hotel",
        "v_lat":51.5101807168,
        "v_lng":-0.1208525165,
        "v_cat":"Hotel"
    },
    {
        "zip":"WC2",
        "city_code":"LDN",
        "n_name":"Covent Garden, Holborn, Strand",
        "n_lat":51.5081275,
        "n_lng":-0.1253257,
        "v_name":"Savoy Theatre",
        "v_lat":51.5099444481,
        "v_lng":-0.1208642302,
        "v_cat":"Theater"
    },
    {
        "zip":"WC2",
        "city_code":"LDN",
        "n_name":"Covent Garden, Holborn, Strand",
        "n_lat":51.5081275,
        "n_lng":-0.1253257,
        "v_name":"Horse Guards Parade",
        "v_lat":51.5048473312,
        "v_lng":-0.1265903474,
        "v_cat":"Plaza"
    },
    {
        "zip":"WC2",
        "city_code":"LDN",
        "n_name":"Covent Garden, Holborn, Strand",
        "n_lat":51.5081275,
        "n_lng":-0.1253257,
        "v_name":"The Old Shades",
        "v_lat":51.5064043663,
        "v_lng":-0.1271653327,
        "v_cat":"Pub"
    },
    {
        "zip":"WC2",
        "city_code":"LDN",
        "n_name":"Covent Garden, Holborn, Strand",
        "n_lat":51.5081275,
        "n_lng":-0.1253257,
        "v_name":"Amorino",
        "v_lat":51.5115097134,
        "v_lng":-0.1257944634,
        "v_cat":"Ice Cream Shop"
    },
    {
        "zip":"WC2",
        "city_code":"LDN",
        "n_name":"Covent Garden, Holborn, Strand",
        "n_lat":51.5081275,
        "n_lng":-0.1253257,
        "v_name":"The Alchemist",
        "v_lat":51.5114583879,
        "v_lng":-0.1269548379,
        "v_cat":"Cocktail Bar"
    },
    {
        "zip":"WC2",
        "city_code":"LDN",
        "n_name":"Covent Garden, Holborn, Strand",
        "n_lat":51.5081275,
        "n_lng":-0.1253257,
        "v_name":"Aesop",
        "v_lat":51.5116725407,
        "v_lng":-0.1241713647,
        "v_cat":"Cosmetics Shop"
    },
    {
        "zip":"WC2",
        "city_code":"LDN",
        "n_name":"Covent Garden, Holborn, Strand",
        "n_lat":51.5081275,
        "n_lng":-0.1253257,
        "v_name":"Haymarket Hotel",
        "v_lat":51.5082668732,
        "v_lng":-0.1313148161,
        "v_cat":"Hotel"
    },
    {
        "zip":"WC2",
        "city_code":"LDN",
        "n_name":"Covent Garden, Holborn, Strand",
        "n_lat":51.5081275,
        "n_lng":-0.1253257,
        "v_name":"Leicester Square Garden",
        "v_lat":51.510361,
        "v_lng":-0.130127,
        "v_cat":"Garden"
    },
    {
        "zip":"WC2",
        "city_code":"LDN",
        "n_name":"Covent Garden, Holborn, Strand",
        "n_lat":51.5081275,
        "n_lng":-0.1253257,
        "v_name":"Thai Square",
        "v_lat":51.5076557014,
        "v_lng":-0.1298296628,
        "v_cat":"Thai Restaurant"
    },
    {
        "zip":"WC2",
        "city_code":"LDN",
        "n_name":"Covent Garden, Holborn, Strand",
        "n_lat":51.5081275,
        "n_lng":-0.1253257,
        "v_name":"Covent Garden Market",
        "v_lat":51.5119766281,
        "v_lng":-0.1227987175,
        "v_cat":"Shopping Plaza"
    },
    {
        "zip":"WC2",
        "city_code":"LDN",
        "n_name":"Covent Garden, Holborn, Strand",
        "n_lat":51.5081275,
        "n_lng":-0.1253257,
        "v_name":"Japan Centre",
        "v_lat":51.5097608618,
        "v_lng":-0.1312729716,
        "v_cat":"Japanese Restaurant"
    },
    {
        "zip":"WC2",
        "city_code":"LDN",
        "n_name":"Covent Garden, Holborn, Strand",
        "n_lat":51.5081275,
        "n_lng":-0.1253257,
        "v_name":"Leicester Square",
        "v_lat":51.5105186595,
        "v_lng":-0.1300978661,
        "v_cat":"Plaza"
    },
    {
        "zip":"WC2",
        "city_code":"LDN",
        "n_name":"Covent Garden, Holborn, Strand",
        "n_lat":51.5081275,
        "n_lng":-0.1253257,
        "v_name":"Institute of Contemporary Arts (ICA)",
        "v_lat":51.5062650107,
        "v_lng":-0.1308166981,
        "v_cat":"Art Gallery"
    },
    {
        "zip":"WC2",
        "city_code":"LDN",
        "n_name":"Covent Garden, Holborn, Strand",
        "n_lat":51.5081275,
        "n_lng":-0.1253257,
        "v_name":"CoCo Ichibanya",
        "v_lat":51.5118752357,
        "v_lng":-0.1278094632,
        "v_cat":"Japanese Curry Restaurant"
    },
    {
        "zip":"WC2",
        "city_code":"LDN",
        "n_name":"Covent Garden, Holborn, Strand",
        "n_lat":51.5081275,
        "n_lng":-0.1253257,
        "v_name":"% Arabica",
        "v_lat":51.511728,
        "v_lng":-0.124049,
        "v_cat":"Coffee Shop"
    },
    {
        "zip":"WC2",
        "city_code":"LDN",
        "n_name":"Covent Garden, Holborn, Strand",
        "n_lat":51.5081275,
        "n_lng":-0.1253257,
        "v_name":"Her Majesty's Theatre",
        "v_lat":51.5082887652,
        "v_lng":-0.1316411072,
        "v_cat":"Theater"
    },
    {
        "zip":"WC2",
        "city_code":"LDN",
        "n_name":"Covent Garden, Holborn, Strand",
        "n_lat":51.5081275,
        "n_lng":-0.1253257,
        "v_name":"Ladur\u00e9e",
        "v_lat":51.512016,
        "v_lng":-0.122743,
        "v_cat":"Dessert Shop"
    },
    {
        "zip":"WC2",
        "city_code":"LDN",
        "n_name":"Covent Garden, Holborn, Strand",
        "n_lat":51.5081275,
        "n_lng":-0.1253257,
        "v_name":"Apple Covent Garden",
        "v_lat":51.512214,
        "v_lng":-0.123568,
        "v_cat":"Electronics Store"
    },
    {
        "zip":"WC2",
        "city_code":"LDN",
        "n_name":"Covent Garden, Holborn, Strand",
        "n_lat":51.5081275,
        "n_lng":-0.1253257,
        "v_name":"The LEGO Store",
        "v_lat":51.5103909442,
        "v_lng":-0.1309967014,
        "v_cat":"Toy \/ Game Store"
    },
    {
        "zip":"WC2",
        "city_code":"LDN",
        "n_name":"Covent Garden, Holborn, Strand",
        "n_lat":51.5081275,
        "n_lng":-0.1253257,
        "v_name":"Salt 'n Pepper",
        "v_lat":51.5094797139,
        "v_lng":-0.1299682238,
        "v_cat":"Pakistani Restaurant"
    },
    {
        "zip":"WC2",
        "city_code":"LDN",
        "n_name":"Covent Garden, Holborn, Strand",
        "n_lat":51.5081275,
        "n_lng":-0.1253257,
        "v_name":"Dishoom",
        "v_lat":51.5123832618,
        "v_lng":-0.1269489527,
        "v_cat":"Indian Restaurant"
    },
    {
        "zip":"WC2",
        "city_code":"LDN",
        "n_name":"Covent Garden, Holborn, Strand",
        "n_lat":51.5081275,
        "n_lng":-0.1253257,
        "v_name":"Sofitel London St James",
        "v_lat":51.5076355321,
        "v_lng":-0.1323668594,
        "v_cat":"Hotel"
    },
    {
        "zip":"WC2",
        "city_code":"LDN",
        "n_name":"Covent Garden, Holborn, Strand",
        "n_lat":51.5081275,
        "n_lng":-0.1253257,
        "v_name":"Dover Street Market",
        "v_lat":51.5089808811,
        "v_lng":-0.1318666218,
        "v_cat":"Boutique"
    },
    {
        "zip":"WC2",
        "city_code":"LDN",
        "n_name":"Covent Garden, Holborn, Strand",
        "n_lat":51.5081275,
        "n_lng":-0.1253257,
        "v_name":"ICA Cinema",
        "v_lat":51.5060182981,
        "v_lng":-0.1310683159,
        "v_cat":"Indie Movie Theater"
    },
    {
        "zip":"WC2",
        "city_code":"LDN",
        "n_name":"Covent Garden, Holborn, Strand",
        "n_lat":51.5081275,
        "n_lng":-0.1253257,
        "v_name":"Ben's Cookies",
        "v_lat":51.5121563571,
        "v_lng":-0.1224360356,
        "v_cat":"Dessert Shop"
    },
    {
        "zip":"WC2",
        "city_code":"LDN",
        "n_name":"Covent Garden, Holborn, Strand",
        "n_lat":51.5081275,
        "n_lng":-0.1253257,
        "v_name":"Five Guys",
        "v_lat":51.511877,
        "v_lng":-0.1266335,
        "v_cat":"Burger Joint"
    },
    {
        "zip":"WC2",
        "city_code":"LDN",
        "n_name":"Covent Garden, Holborn, Strand",
        "n_lat":51.5081275,
        "n_lng":-0.1253257,
        "v_name":"SUSHISAMBA",
        "v_lat":51.5122320678,
        "v_lng":-0.1223708721,
        "v_cat":"Sushi Restaurant"
    },
    {
        "zip":"WC2",
        "city_code":"LDN",
        "n_name":"Covent Garden, Holborn, Strand",
        "n_lat":51.5081275,
        "n_lng":-0.1253257,
        "v_name":"Prince of Wales Theatre",
        "v_lat":51.5101318705,
        "v_lng":-0.1315943317,
        "v_cat":"Theater"
    },
    {
        "zip":"WC2",
        "city_code":"LDN",
        "n_name":"Covent Garden, Holborn, Strand",
        "n_lat":51.5081275,
        "n_lng":-0.1253257,
        "v_name":"Good Friend",
        "v_lat":51.5117507792,
        "v_lng":-0.1287733008,
        "v_cat":"Fried Chicken Joint"
    },
    {
        "zip":"WC2",
        "city_code":"LDN",
        "n_name":"Covent Garden, Holborn, Strand",
        "n_lat":51.5081275,
        "n_lng":-0.1253257,
        "v_name":"Sandwich Centre",
        "v_lat":51.5081738427,
        "v_lng":-0.1324513468,
        "v_cat":"Sandwich Place"
    },
    {
        "zip":"WC2",
        "city_code":"LDN",
        "n_name":"Covent Garden, Holborn, Strand",
        "n_lat":51.5081275,
        "n_lng":-0.1253257,
        "v_name":"The Original London Sightseeing Tour",
        "v_lat":51.5080106041,
        "v_lng":-0.1300521006,
        "v_cat":"Tour Provider"
    },
    {
        "zip":"WC2",
        "city_code":"LDN",
        "n_name":"Covent Garden, Holborn, Strand",
        "n_lat":51.5081275,
        "n_lng":-0.1253257,
        "v_name":"Kanada-Ya",
        "v_lat":51.5093594057,
        "v_lng":-0.1322146732,
        "v_cat":"Ramen Restaurant"
    },
    {
        "zip":"WC2",
        "city_code":"LDN",
        "n_name":"Covent Garden, Holborn, Strand",
        "n_lat":51.5081275,
        "n_lng":-0.1253257,
        "v_name":"Mall Galleries",
        "v_lat":51.5063703427,
        "v_lng":-0.1297757313,
        "v_cat":"Art Gallery"
    },
    {
        "zip":"WC2",
        "city_code":"LDN",
        "n_name":"Covent Garden, Holborn, Strand",
        "n_lat":51.5081275,
        "n_lng":-0.1253257,
        "v_name":"Harold Pinter Theatre",
        "v_lat":51.5094429046,
        "v_lng":-0.1316437367,
        "v_cat":"Theater"
    },
    {
        "zip":"WC2",
        "city_code":"LDN",
        "n_name":"Covent Garden, Holborn, Strand",
        "n_lat":51.5081275,
        "n_lng":-0.1253257,
        "v_name":"The Royal Trafalgar by Thistle",
        "v_lat":51.509087001,
        "v_lng":-0.130327774,
        "v_cat":"Hotel"
    },
    {
        "zip":"WC2",
        "city_code":"LDN",
        "n_name":"Covent Garden, Holborn, Strand",
        "n_lat":51.5081275,
        "n_lng":-0.1253257,
        "v_name":"The Z Hotel Piccadilly",
        "v_lat":51.5090094646,
        "v_lng":-0.1315641588,
        "v_cat":"Hotel"
    },
    {
        "zip":"WC2",
        "city_code":"LDN",
        "n_name":"Covent Garden, Holborn, Strand",
        "n_lat":51.5081275,
        "n_lng":-0.1253257,
        "v_name":"Brumus",
        "v_lat":51.508197612,
        "v_lng":-0.131485011,
        "v_cat":"French Restaurant"
    },
    {
        "zip":"WC2",
        "city_code":"LDN",
        "n_name":"Covent Garden, Holborn, Strand",
        "n_lat":51.5081275,
        "n_lng":-0.1253257,
        "v_name":"Pret A Manger",
        "v_lat":51.5082320521,
        "v_lng":-0.1300620185,
        "v_cat":"Sandwich Place"
    },
    {
        "zip":"WC2",
        "city_code":"LDN",
        "n_name":"Covent Garden, Holborn, Strand",
        "n_lat":51.5081275,
        "n_lng":-0.1253257,
        "v_name":"Ole & Steen",
        "v_lat":51.512013,
        "v_lng":-0.128622,
        "v_cat":"Bakery"
    },
    {
        "zip":"WC2",
        "city_code":"LDN",
        "n_name":"Covent Garden, Holborn, Strand",
        "n_lat":51.5081275,
        "n_lng":-0.1253257,
        "v_name":"Pall Mall Fine Wine Bar",
        "v_lat":51.50766,
        "v_lng":-0.132015,
        "v_cat":"Wine Bar"
    },
    {
        "zip":"WC2",
        "city_code":"LDN",
        "n_name":"Covent Garden, Holborn, Strand",
        "n_lat":51.5081275,
        "n_lng":-0.1253257,
        "v_name":"Machiya",
        "v_lat":51.5094125546,
        "v_lng":-0.1319943578,
        "v_cat":"Japanese Restaurant"
    },
    {
        "zip":"WC2",
        "city_code":"LDN",
        "n_name":"Covent Garden, Holborn, Strand",
        "n_lat":51.5081275,
        "n_lng":-0.1253257,
        "v_name":"Comptoir Libanais",
        "v_lat":51.5089907821,
        "v_lng":-0.1322925719,
        "v_cat":"Lebanese Restaurant"
    },
    {
        "zip":"WC2",
        "city_code":"LDN",
        "n_name":"Covent Garden, Holborn, Strand",
        "n_lat":51.5081275,
        "n_lng":-0.1253257,
        "v_name":"St James Bar",
        "v_lat":51.5074420616,
        "v_lng":-0.1324017296,
        "v_cat":"Cocktail Bar"
    },
    {
        "zip":"WC2",
        "city_code":"LDN",
        "n_name":"Covent Garden, Holborn, Strand",
        "n_lat":51.5081275,
        "n_lng":-0.1253257,
        "v_name":"Byron",
        "v_lat":51.5088708919,
        "v_lng":-0.1316985423,
        "v_cat":"Burger Joint"
    },
    {
        "zip":"WC2",
        "city_code":"LDN",
        "n_name":"Covent Garden, Holborn, Strand",
        "n_lat":51.5081275,
        "n_lng":-0.1253257,
        "v_name":"Guards Memorial",
        "v_lat":51.5045946228,
        "v_lng":-0.1294380137,
        "v_cat":"Monument \/ Landmark"
    },
    {
        "zip":"WC2",
        "city_code":"LDN",
        "n_name":"Covent Garden, Holborn, Strand",
        "n_lat":51.5081275,
        "n_lng":-0.1253257,
        "v_name":"Rochelle Canteen at ICA",
        "v_lat":51.506258,
        "v_lng":-0.13064,
        "v_cat":"English Restaurant"
    },
    {
        "zip":"WC2",
        "city_code":"LDN",
        "n_name":"Covent Garden, Holborn, Strand",
        "n_lat":51.5081275,
        "n_lng":-0.1253257,
        "v_name":"Theatre Royal Haymarket",
        "v_lat":51.5085794794,
        "v_lng":-0.131203805,
        "v_cat":"Theater"
    },
    {
        "zip":"WC2",
        "city_code":"LDN",
        "n_name":"Covent Garden, Holborn, Strand",
        "n_lat":51.5081275,
        "n_lng":-0.1253257,
        "v_name":"Burberry",
        "v_lat":51.5089921847,
        "v_lng":-0.1322225128,
        "v_cat":"Boutique"
    },
    {
        "zip":"WC2",
        "city_code":"LDN",
        "n_name":"Covent Garden, Holborn, Strand",
        "n_lat":51.5081275,
        "n_lng":-0.1253257,
        "v_name":"Spaghetti House",
        "v_lat":51.5085920775,
        "v_lng":-0.1319192831,
        "v_cat":"Italian Restaurant"
    },
    {
        "zip":"WC2",
        "city_code":"LDN",
        "n_name":"Covent Garden, Holborn, Strand",
        "n_lat":51.5081275,
        "n_lng":-0.1253257,
        "v_name":"Steak & Co.",
        "v_lat":51.5093276249,
        "v_lng":-0.1322797753,
        "v_cat":"Steakhouse"
    },
    {
        "zip":"EC1",
        "city_code":"LDN",
        "n_name":"Clerkenwell, Finsbury, Barbican",
        "n_lat":51.5001525879,
        "n_lng":-0.1262360066,
        "v_name":"Elizabeth Tower (Big Ben) (Big Ben (Elizabeth Tower))",
        "v_lat":51.50062,
        "v_lng":-0.124578,
        "v_cat":"Monument \/ Landmark"
    },
    {
        "zip":"EC1",
        "city_code":"LDN",
        "n_name":"Clerkenwell, Finsbury, Barbican",
        "n_lat":51.5001525879,
        "n_lng":-0.1262360066,
        "v_name":"Parliament Square",
        "v_lat":51.500595,
        "v_lng":-0.126802,
        "v_cat":"Plaza"
    },
    {
        "zip":"EC1",
        "city_code":"LDN",
        "n_name":"Clerkenwell, Finsbury, Barbican",
        "n_lat":51.5001525879,
        "n_lng":-0.1262360066,
        "v_name":"Royal Institution of Chartered Surveyors (RICS)",
        "v_lat":51.5010211311,
        "v_lng":-0.1280893277,
        "v_cat":"Event Space"
    },